[
  {
    "card_type": "entity",
    "entity_type": "MedicalProvider",
    "name": "Acute Care Surgery - Edgewood",
    "attributes": {
      "parent_system": "",
      "location_count": 2,
      "locations": [
        {
          "location": "Main",
          "address": "1 Medical Village Drive, Edgewood, KY 41017-3403",
          "phone": "(859) 578-5880"
        },
        {
          "location": "Main",
          "address": "1 Medical Village DriveEdgewood, KY 41017-3403",
          "phone": "(859) 578-5880"
        }
      ]
    },
    "source_id": "facility_0",
    "source_file": ""
  },
  {
    "card_type": "entity",
    "entity_type": "MedicalProvider",
    "name": "Advanced Heart Failure Management Center - Edgewood",
    "attributes": {
      "parent_system": "",
      "location_count": 2,
      "locations": [
        {
          "location": "Main",
          "address": "1 Medical Village Drive, Edgewood, KY 41017-3403",
          "phone": "(859) 301-0124"
        },
        {
          "location": "Main",
          "address": "1 Medical Village DriveEdgewood, KY 41017-3403",
          "phone": "(859) 301-0124"
        }
      ]
    },
    "source_id": "facility_1",
    "source_file": ""
  },
  {
    "card_type": "entity",
    "entity_type": "MedicalProvider",
    "name": "Advanced Heart Failure Management Center - Edgewood Heart & Vascular Institute",
    "attributes": {
      "parent_system": "",
      "location_count": 2,
      "locations": [
        {
          "location": "Main",
          "address": "711 Medical Village Drive, Edgewood, KY 41017-3439",
          "phone": "(859) 301-0124"
        },
        {
          "location": "Main",
          "address": "711 Medical Village DriveEdgewood, KY 41017-3439",
          "phone": "(859) 301-0124"
        }
      ]
    },
    "source_id": "facility_2",
    "source_file": ""
  },
  {
    "card_type": "entity",
    "entity_type": "MedicalProvider",
    "name": "Advanced Heart Failure Management Center - Ft. Thomas Outreach Clinic",
    "attributes": {
      "parent_system": "",
      "location_count": 2,
      "locations": [
        {
          "location": "Main",
          "address": "1400 Grand Avenue, Newport, KY 41071-2570",
          "phone": "(859) 301-0124"
        },
        {
          "location": "Main",
          "address": "1400 Grand AvenueNewport, KY 41071-2570",
          "phone": "(859) 301-0124"
        }
      ]
    },
    "source_id": "facility_3",
    "source_file": ""
  },
  {
    "card_type": "entity",
    "entity_type": "MedicalProvider",
    "name": "Arrhythmia Consultants - HVI Edgewood Heart & Vascular Institute",
    "attributes": {
      "parent_system": "",
      "location_count": 2,
      "locations": [
        {
          "location": "Main",
          "address": "711 Medical Village Drive, Edgewood, KY 41017-3439",
          "phone": "(859) 331-3353"
        },
        {
          "location": "Main",
          "address": "711 Medical Village DriveEdgewood, KY 41017-3439",
          "phone": "(859) 331-3353"
        }
      ]
    },
    "source_id": "facility_4",
    "source_file": ""
  },
  {
    "card_type": "entity",
    "entity_type": "MedicalProvider",
    "name": "Arrhythmia Consultants - HVI Florence Turfway",
    "attributes": {
      "parent_system": "",
      "location_count": 2,
      "locations": [
        {
          "location": "Main",
          "address": "7388 Turfway Road, Florence, KY 41042-1381",
          "phone": "(859) 331-3353"
        },
        {
          "location": "Main",
          "address": "7388 Turfway RoadFlorence, KY 41042-1381",
          "phone": "(859) 331-3353"
        }
      ]
    },
    "source_id": "facility_5",
    "source_file": ""
  },
  {
    "card_type": "entity",
    "entity_type": "MedicalProvider",
    "name": "Arrhythmia Consultants - HVI Lawrenceburg",
    "attributes": {
      "parent_system": "",
      "location_count": 2,
      "locations": [
        {
          "location": "Main",
          "address": "606 Wilson Creek Road, Lawrenceburg, IN 47025-1095",
          "phone": "(859) 331-3353"
        },
        {
          "location": "Main",
          "address": "606 Wilson Creek RoadLawrenceburg, IN 47025-1095",
          "phone": "(859) 331-3353"
        }
      ]
    },
    "source_id": "facility_6",
    "source_file": ""
  },
  {
    "card_type": "entity",
    "entity_type": "MedicalProvider",
    "name": "Arrhythmia Consultants - HVI Newport/Ft. Thomas",
    "attributes": {
      "parent_system": "",
      "location_count": 2,
      "locations": [
        {
          "location": "Main",
          "address": "1400 Grand Avenue, Newport, KY 41071-2570",
          "phone": "(859) 331-3353"
        },
        {
          "location": "Main",
          "address": "1400 Grand AvenueNewport, KY 41071-2570",
          "phone": "(859) 331-3353"
        }
      ]
    },
    "source_id": "facility_7",
    "source_file": ""
  },
  {
    "card_type": "entity",
    "entity_type": "MedicalProvider",
    "name": "Behavioral Health - Burlington",
    "attributes": {
      "parent_system": "",
      "location_count": 2,
      "locations": [
        {
          "location": "Main",
          "address": "6105 1st Financial Drive, Burlington, KY 41005-7892",
          "phone": "(859) 301-5901"
        },
        {
          "location": "Main",
          "address": "6105 1st Financial DriveBurlington, KY 41005-7892",
          "phone": "(859) 301-5901"
        }
      ]
    },
    "source_id": "facility_8",
    "source_file": ""
  },
  {
    "card_type": "entity",
    "entity_type": "MedicalProvider",
    "name": "Behavioral Health - Covington",
    "attributes": {
      "parent_system": "",
      "location_count": 2,
      "locations": [
        {
          "location": "Main",
          "address": "1500 James Simpson Jr. Way, Covington, KY 41011-0801",
          "phone": "(859) 301-5901"
        },
        {
          "location": "Main",
          "address": "1500 James Simpson Jr. WayCovington, KY 41011-0801",
          "phone": "(859) 301-5901"
        }
      ]
    },
    "source_id": "facility_9",
    "source_file": ""
  },
  {
    "card_type": "entity",
    "entity_type": "MedicalProvider",
    "name": "Behavioral Health - Covington Suite 300",
    "attributes": {
      "parent_system": "",
      "location_count": 1,
      "locations": [
        {
          "location": "Main",
          "address": "20 West 18th StreetCovington, KY 41011-3329",
          "phone": "(859) 757-0717"
        }
      ]
    },
    "source_id": "facility_10",
    "source_file": ""
  },
  {
    "card_type": "entity",
    "entity_type": "MedicalProvider",
    "name": "Behavioral Health - Crestview Hills",
    "attributes": {
      "parent_system": "",
      "location_count": 1,
      "locations": [
        {
          "location": "Main",
          "address": "334 Thomas More ParkwayCrestview Hills, KY 41017-3464",
          "phone": "(859) 301-5901"
        }
      ]
    },
    "source_id": "facility_11",
    "source_file": ""
  },
  {
    "card_type": "entity",
    "entity_type": "MedicalProvider",
    "name": "Behavioral Health - Crittenden",
    "attributes": {
      "parent_system": "",
      "location_count": 1,
      "locations": [
        {
          "location": "Main",
          "address": "405 Violet RoadCrittenden, KY 41030-8956",
          "phone": "(859) 301-5901"
        }
      ]
    },
    "source_id": "facility_12",
    "source_file": ""
  },
  {
    "card_type": "entity",
    "entity_type": "MedicalProvider",
    "name": "Behavioral Health - Dry Ridge",
    "attributes": {
      "parent_system": "",
      "location_count": 1,
      "locations": [
        {
          "location": "Main",
          "address": "100 Blackburn LaneDry Ridge, KY 41035-8806",
          "phone": "(859) 301-5901"
        }
      ]
    },
    "source_id": "facility_13",
    "source_file": ""
  },
  {
    "card_type": "entity",
    "entity_type": "MedicalProvider",
    "name": "Behavioral Health - Edgewood",
    "attributes": {
      "parent_system": "",
      "location_count": 1,
      "locations": [
        {
          "location": "Main",
          "address": "1 Medical Village DriveEdgewood, KY 41017-3403",
          "phone": "(859) 301-5901"
        }
      ]
    },
    "source_id": "facility_14",
    "source_file": ""
  },
  {
    "card_type": "entity",
    "entity_type": "MedicalProvider",
    "name": "Behavioral Health - Erlanger SUN",
    "attributes": {
      "parent_system": "",
      "location_count": 1,
      "locations": [
        {
          "location": "Main",
          "address": "820 Dolwick DriveErlanger, KY 41018-2774",
          "phone": "(859) 301-5901"
        }
      ]
    },
    "source_id": "facility_15",
    "source_file": ""
  },
  {
    "card_type": "entity",
    "entity_type": "MedicalProvider",
    "name": "Behavioral Health - Florence",
    "attributes": {
      "parent_system": "",
      "location_count": 1,
      "locations": [
        {
          "location": "Main",
          "address": "4900 Houston RoadFlorence, KY 41042-4824",
          "phone": "859-301-5901"
        }
      ]
    },
    "source_id": "facility_16",
    "source_file": ""
  },
  {
    "card_type": "entity",
    "entity_type": "MedicalProvider",
    "name": "Behavioral Health - Florence Turfway Suite 140",
    "attributes": {
      "parent_system": "",
      "location_count": 1,
      "locations": [
        {
          "location": "Main",
          "address": "7300 Turfway RoadFlorence, KY 41042-1398",
          "phone": "(859) 301-5901"
        }
      ]
    },
    "source_id": "facility_17",
    "source_file": ""
  },
  {
    "card_type": "entity",
    "entity_type": "MedicalProvider",
    "name": "Behavioral Health - Greendale",
    "attributes": {
      "parent_system": "",
      "location_count": 1,
      "locations": [
        {
          "location": "Main",
          "address": "1640 Flossie DriveGreendale, IN 47025-8424",
          "phone": "(859) 301-5901"
        }
      ]
    },
    "source_id": "facility_18",
    "source_file": ""
  },
  {
    "card_type": "entity",
    "entity_type": "MedicalProvider",
    "name": "Behavioral Health - Hebron",
    "attributes": {
      "parent_system": "",
      "location_count": 1,
      "locations": [
        {
          "location": "Main",
          "address": "2000 Litton LaneHebron, KY 41048-8611",
          "phone": "(859) 301-5901"
        }
      ]
    },
    "source_id": "facility_19",
    "source_file": ""
  },
  {
    "card_type": "entity",
    "entity_type": "MedicalProvider",
    "name": "Behavioral Health - Highland Heights",
    "attributes": {
      "parent_system": "",
      "location_count": 1,
      "locations": [
        {
          "location": "Main",
          "address": "2626 Alexandria PikeHighland Heights, KY 41076-1530",
          "phone": "(859) 301-5901"
        }
      ]
    },
    "source_id": "facility_20",
    "source_file": ""
  },
  {
    "card_type": "entity",
    "entity_type": "MedicalProvider",
    "name": "Behavioral Health - Newport Ovation",
    "attributes": {
      "parent_system": "",
      "location_count": 1,
      "locations": [
        {
          "location": "Main",
          "address": "200 West 3rd StreetNewport, KY 41071-1814",
          "phone": "(859) 301-5901"
        }
      ]
    },
    "source_id": "facility_21",
    "source_file": ""
  },
  {
    "card_type": "entity",
    "entity_type": "MedicalProvider",
    "name": "Behavioral Health - Newport/Ft. Thomas",
    "attributes": {
      "parent_system": "",
      "location_count": 1,
      "locations": [
        {
          "location": "Main",
          "address": "1400 Grand AvenueNewport, KY 41071-2570",
          "phone": "(859) 301-5901"
        }
      ]
    },
    "source_id": "facility_22",
    "source_file": ""
  },
  {
    "card_type": "entity",
    "entity_type": "MedicalProvider",
    "name": "Behavioral Health - Turfway",
    "attributes": {
      "parent_system": "",
      "location_count": 1,
      "locations": [
        {
          "location": "Main",
          "address": "7370 Turfway RoadFlorence, KY 41042-4896",
          "phone": "(859) 301-5901"
        }
      ]
    },
    "source_id": "facility_23",
    "source_file": ""
  },
  {
    "card_type": "entity",
    "entity_type": "MedicalProvider",
    "name": "Behavioral Health - Union Richwood",
    "attributes": {
      "parent_system": "",
      "location_count": 1,
      "locations": [
        {
          "location": "Main",
          "address": "605 Man O War BoulevardUnion, KY 41091-2007",
          "phone": "(859) 757-0717"
        }
      ]
    },
    "source_id": "facility_24",
    "source_file": ""
  },
  {
    "card_type": "entity",
    "entity_type": "MedicalProvider",
    "name": "Behavioral Health - Walton",
    "attributes": {
      "parent_system": "",
      "location_count": 1,
      "locations": [
        {
          "location": "Main",
          "address": "13260 Service RoadWalton, KY 41094-9565",
          "phone": "(859) 301-5901"
        }
      ]
    },
    "source_id": "facility_25",
    "source_file": ""
  },
  {
    "card_type": "entity",
    "entity_type": "MedicalProvider",
    "name": "Breast Center - Florence",
    "attributes": {
      "parent_system": "",
      "location_count": 1,
      "locations": [
        {
          "location": "Main",
          "address": "4900 Houston RoadFlorence, KY 41042",
          "phone": "(859) 212-4329"
        }
      ]
    },
    "source_id": "facility_26",
    "source_file": ""
  },
  {
    "card_type": "entity",
    "entity_type": "MedicalProvider",
    "name": "Breast Center - Ft. Thomas",
    "attributes": {
      "parent_system": "",
      "location_count": 1,
      "locations": [
        {
          "location": "Main",
          "address": "85 N. Grand AvenueFt. Thomas, KY 41075",
          "phone": "(859) 572-2300"
        }
      ]
    },
    "source_id": "facility_27",
    "source_file": ""
  },
  {
    "card_type": "entity",
    "entity_type": "MedicalProvider",
    "name": "Breast Center - Grant",
    "attributes": {
      "parent_system": "",
      "location_count": 1,
      "locations": [
        {
          "location": "Main",
          "address": "238 Barnes RdWilliamstown, KY 41097-9482",
          "phone": "(859) 824-8110"
        }
      ]
    },
    "source_id": "facility_28",
    "source_file": ""
  },
  {
    "card_type": "entity",
    "entity_type": "MedicalProvider",
    "name": "Breast Center – Covington",
    "attributes": {
      "parent_system": "",
      "location_count": 1,
      "locations": [
        {
          "location": "Main",
          "address": "1500 James Simpson, Jr. WayCovington, KY 41011",
          "phone": "(859) 655-8777"
        }
      ]
    },
    "source_id": "facility_29",
    "source_file": ""
  },
  {
    "card_type": "entity",
    "entity_type": "MedicalProvider",
    "name": "Breast Health - Cancer Center Greendale",
    "attributes": {
      "parent_system": "",
      "location_count": 1,
      "locations": [
        {
          "location": "Main",
          "address": "17525 Greendale Plaza DriveGreendale, IN 47025-8299",
          "phone": "(812) 496-7710"
        }
      ]
    },
    "source_id": "facility_30",
    "source_file": ""
  },
  {
    "card_type": "entity",
    "entity_type": "MedicalProvider",
    "name": "Breast Health- Cancer Center",
    "attributes": {
      "parent_system": "",
      "location_count": 1,
      "locations": [
        {
          "location": "Main",
          "address": "1 Medical Village DriveEdgewood, KY 41017-3403",
          "phone": "(859) 301-6257"
        }
      ]
    },
    "source_id": "facility_31",
    "source_file": ""
  },
  {
    "card_type": "entity",
    "entity_type": "MedicalProvider",
    "name": "Breast Health- Edgewood Cancer Center",
    "attributes": {
      "parent_system": "",
      "location_count": 1,
      "locations": [
        {
          "location": "Main",
          "address": "1 Medical Village DriveEdgewood, KY 41017-3403",
          "phone": "(859) 301-6257"
        }
      ]
    },
    "source_id": "facility_32",
    "source_file": ""
  },
  {
    "card_type": "entity",
    "entity_type": "MedicalProvider",
    "name": "Breast Health- Greendale",
    "attributes": {
      "parent_system": "",
      "location_count": 1,
      "locations": [
        {
          "location": "Main",
          "address": "17525 Greendale Plaza DriveGreendale, IN 47025-8299",
          "phone": "(812) 496-7710"
        }
      ]
    },
    "source_id": "facility_33",
    "source_file": ""
  },
  {
    "card_type": "entity",
    "entity_type": "MedicalProvider",
    "name": "Business Health - Mineola Clinic",
    "attributes": {
      "parent_system": "",
      "location_count": 1,
      "locations": [
        {
          "location": "Main",
          "address": "4123 Olympic BoulevardErlanger, KY 41018-3508",
          "phone": "(859) 301-2999"
        }
      ]
    },
    "source_id": "facility_34",
    "source_file": ""
  },
  {
    "card_type": "entity",
    "entity_type": "MedicalProvider",
    "name": "Cancer Care Retail Pharmacy",
    "attributes": {
      "parent_system": "",
      "location_count": 1,
      "locations": [
        {
          "location": "Main",
          "address": "1 Medical Village Dr.Edgewood, KY 41017",
          "phone": "859-301-4510"
        }
      ]
    },
    "source_id": "facility_35",
    "source_file": ""
  },
  {
    "card_type": "entity",
    "entity_type": "MedicalProvider",
    "name": "Cancer Care- Edgewood",
    "attributes": {
      "parent_system": "",
      "location_count": 1,
      "locations": [
        {
          "location": "Main",
          "address": "1 Medical Village DriveEdgewood, KY 41017-3403",
          "phone": "(859) 301-2237"
        }
      ]
    },
    "source_id": "facility_36",
    "source_file": ""
  },
  {
    "card_type": "entity",
    "entity_type": "MedicalProvider",
    "name": "Cardiac & Vascular Diagnostic Imaging - Covington",
    "attributes": {
      "parent_system": "",
      "location_count": 1,
      "locations": [
        {
          "location": "Main",
          "address": "1500 James Simpson Jr. WayCovington, KY 41011",
          "phone": "(859) 655-8666"
        }
      ]
    },
    "source_id": "facility_37",
    "source_file": ""
  },
  {
    "card_type": "entity",
    "entity_type": "MedicalProvider",
    "name": "Cardiac Diagnostic Imaging - Edgewood Heart & Vascular Institute",
    "attributes": {
      "parent_system": "",
      "location_count": 1,
      "locations": [
        {
          "location": "Main",
          "address": "711 Medical Village Dr.Edgewood, KY 41017",
          "phone": "(859) 331-3484"
        }
      ]
    },
    "source_id": "facility_38",
    "source_file": ""
  },
  {
    "card_type": "entity",
    "entity_type": "MedicalProvider",
    "name": "Cardiac Rehabilitation Center - Dearborn",
    "attributes": {
      "parent_system": "",
      "location_count": 1,
      "locations": [
        {
          "location": "Main",
          "address": "600 Wilson Creek RoadLawrenceburg, IN 47025",
          "phone": "(812) 496-7254"
        }
      ]
    },
    "source_id": "facility_39",
    "source_file": ""
  },
  {
    "card_type": "entity",
    "entity_type": "MedicalProvider",
    "name": "Cardiac Rehabilitation Center - Edgewood Heart & Vascular Institute",
    "attributes": {
      "parent_system": "",
      "location_count": 1,
      "locations": [
        {
          "location": "Main",
          "address": "711 Medical Village Dr.Edgewood, KY 41017",
          "phone": "(859) 301-3600"
        }
      ]
    },
    "source_id": "facility_40",
    "source_file": ""
  },
  {
    "card_type": "entity",
    "entity_type": "MedicalProvider",
    "name": "Cardiac Rehabilitation Center - Ft. Thomas",
    "attributes": {
      "parent_system": "",
      "location_count": 1,
      "locations": [
        {
          "location": "Main",
          "address": "85 North Grand AvenueFt. Thomas, KY 41075",
          "phone": "(859) 572-3382"
        }
      ]
    },
    "source_id": "facility_41",
    "source_file": ""
  },
  {
    "card_type": "entity",
    "entity_type": "MedicalProvider",
    "name": "Cardiac Rehabilitation Center - Grant",
    "attributes": {
      "parent_system": "",
      "location_count": 1,
      "locations": [
        {
          "location": "Main",
          "address": "300 Barnes Rd.Williamstown, KY 41097",
          "phone": "(859) 824-8244"
        }
      ]
    },
    "source_id": "facility_42",
    "source_file": ""
  },
  {
    "card_type": "entity",
    "entity_type": "MedicalProvider",
    "name": "Cardiac Surgeons- Edgewood",
    "attributes": {
      "parent_system": "",
      "location_count": 1,
      "locations": [
        {
          "location": "Main",
          "address": "1 Medical Village DriveEdgewood, KY 41017-3403",
          "phone": "(859) 301-9010"
        }
      ]
    },
    "source_id": "facility_43",
    "source_file": ""
  },
  {
    "card_type": "entity",
    "entity_type": "MedicalProvider",
    "name": "Cardiac Surgeons- Edgewood Heart & Vascular Institute",
    "attributes": {
      "parent_system": "",
      "location_count": 1,
      "locations": [
        {
          "location": "Main",
          "address": "711 Medical Village DriveEdgewood, KY 41017-3439",
          "phone": "(859) 301-9010"
        }
      ]
    },
    "source_id": "facility_44",
    "source_file": ""
  },
  {
    "card_type": "entity",
    "entity_type": "MedicalProvider",
    "name": "CardioVascular Mobile Health Unit",
    "attributes": {
      "parent_system": "",
      "location_count": 1,
      "locations": [
        {
          "location": "Main",
          "address": "1 Medical Village DriveEdgewood, KY 41017",
          "phone": "(859) 301-9355"
        }
      ]
    },
    "source_id": "facility_45",
    "source_file": ""
  },
  {
    "card_type": "entity",
    "entity_type": "MedicalProvider",
    "name": "Care Coordination - Covington",
    "attributes": {
      "parent_system": "",
      "location_count": 1,
      "locations": [
        {
          "location": "Main",
          "address": "1500 James Simpson, Jr. WayCovington, KY 41011",
          "phone": "(859) 301-2275"
        }
      ]
    },
    "source_id": "facility_46",
    "source_file": ""
  },
  {
    "card_type": "entity",
    "entity_type": "MedicalProvider",
    "name": "Care Coordination - Edgewood",
    "attributes": {
      "parent_system": "",
      "location_count": 1,
      "locations": [
        {
          "location": "Main",
          "address": "1 Medical Village DriveEdgewood, KY 41017",
          "phone": "(859) 301-2275"
        }
      ]
    },
    "source_id": "facility_47",
    "source_file": ""
  },
  {
    "card_type": "entity",
    "entity_type": "MedicalProvider",
    "name": "Care Coordination - Florence",
    "attributes": {
      "parent_system": "",
      "location_count": 1,
      "locations": [
        {
          "location": "Main",
          "address": "4900 Houston RoadFlorence, KY 41042",
          "phone": "(859) 212-5200"
        }
      ]
    },
    "source_id": "facility_48",
    "source_file": ""
  },
  {
    "card_type": "entity",
    "entity_type": "MedicalProvider",
    "name": "Care Coordination - Ft. Thomas",
    "attributes": {
      "parent_system": "",
      "location_count": 1,
      "locations": [
        {
          "location": "Main",
          "address": "85 N. Grand AvenueFt. Thomas, KY 41075",
          "phone": "(859) 572-3100"
        }
      ]
    },
    "source_id": "facility_49",
    "source_file": ""
  },
  {
    "card_type": "entity",
    "entity_type": "MedicalProvider",
    "name": "Care Coordination - Grant",
    "attributes": {
      "parent_system": "",
      "location_count": 1,
      "locations": [
        {
          "location": "Main",
          "address": "238 Barnes RdWilliamstown, KY 41097-9482",
          "phone": "(859) 824-8240"
        }
      ]
    },
    "source_id": "facility_50",
    "source_file": ""
  },
  {
    "card_type": "entity",
    "entity_type": "MedicalProvider",
    "name": "Case Managers",
    "attributes": {
      "parent_system": "",
      "location_count": 1,
      "locations": [
        {
          "location": "Main",
          "address": "1 Medical Village DriveEdgewood, KY 41017",
          "phone": ""
        }
      ]
    },
    "source_id": "facility_51",
    "source_file": ""
  },
  {
    "card_type": "entity",
    "entity_type": "MedicalProvider",
    "name": "Center for Family Medicine",
    "attributes": {
      "parent_system": "",
      "location_count": 1,
      "locations": [
        {
          "location": "Main",
          "address": "413 South Loop RoadEdgewood, KY 41017-5446",
          "phone": "(859) 301-3800"
        }
      ]
    },
    "source_id": "facility_52",
    "source_file": ""
  },
  {
    "card_type": "entity",
    "entity_type": "MedicalProvider",
    "name": "Clinical and Certified Social Workers",
    "attributes": {
      "parent_system": "",
      "location_count": 1,
      "locations": [
        {
          "location": "Main",
          "address": "1 Medical Village DriveEdgewood, KY 41017",
          "phone": ""
        }
      ]
    },
    "source_id": "facility_53",
    "source_file": ""
  },
  {
    "card_type": "entity",
    "entity_type": "MedicalProvider",
    "name": "Colorectal Surgery - Edgewood Suite 271",
    "attributes": {
      "parent_system": "",
      "location_count": 1,
      "locations": [
        {
          "location": "Main",
          "address": "20 Medical Village DriveEdgewood, KY 41017- 5401",
          "phone": "(859) 578-5880"
        }
      ]
    },
    "source_id": "facility_54",
    "source_file": ""
  },
  {
    "card_type": "entity",
    "entity_type": "MedicalProvider",
    "name": "Colorectal Surgery - Florence",
    "attributes": {
      "parent_system": "",
      "location_count": 1,
      "locations": [
        {
          "location": "Main",
          "address": "4900 Houston RoadFlorence, KY 41042-4824",
          "phone": "(859) 578-5880"
        }
      ]
    },
    "source_id": "facility_55",
    "source_file": ""
  },
  {
    "card_type": "entity",
    "entity_type": "MedicalProvider",
    "name": "Concierge Complete - Ft. Mitchell",
    "attributes": {
      "parent_system": "",
      "location_count": 1,
      "locations": [
        {
          "location": "Main",
          "address": "2300 Chamber Center DriveFt. Mitchell, KY 41017-1686",
          "phone": "(859) 655-7040"
        }
      ]
    },
    "source_id": "facility_56",
    "source_file": ""
  },
  {
    "card_type": "entity",
    "entity_type": "MedicalProvider",
    "name": "Covington Anti-Coagulation Clinic",
    "attributes": {
      "parent_system": "",
      "location_count": 1,
      "locations": [
        {
          "location": "Main",
          "address": "1500 James Simpson Jr. WayCovington, KY 41011",
          "phone": "(859) 301-6790"
        }
      ]
    },
    "source_id": "facility_57",
    "source_file": ""
  },
  {
    "card_type": "entity",
    "entity_type": "MedicalProvider",
    "name": "Dearborn Outpatient Pharmacy",
    "attributes": {
      "parent_system": "",
      "location_count": 1,
      "locations": [
        {
          "location": "Main",
          "address": "600 Wilson Creek Rd. Lawrenceburg, IN 47025",
          "phone": "(812) 496-7388"
        }
      ]
    },
    "source_id": "facility_58",
    "source_file": ""
  },
  {
    "card_type": "entity",
    "entity_type": "MedicalProvider",
    "name": "Dermatology - Crestview Hills",
    "attributes": {
      "parent_system": "",
      "location_count": 1,
      "locations": [
        {
          "location": "Main",
          "address": "651 Centre View BoulevardCrestview Hills, KY 41017-5423",
          "phone": "(859) 371-3376"
        }
      ]
    },
    "source_id": "facility_59",
    "source_file": ""
  },
  {
    "card_type": "entity",
    "entity_type": "MedicalProvider",
    "name": "Dermatology - Florence Turfway",
    "attributes": {
      "parent_system": "",
      "location_count": 1,
      "locations": [
        {
          "location": "Main",
          "address": "7300 Turfway RoadFlorence, KY 41042-1338",
          "phone": "(859) 371-3376"
        }
      ]
    },
    "source_id": "facility_60",
    "source_file": ""
  },
  {
    "card_type": "entity",
    "entity_type": "MedicalProvider",
    "name": "Dermatology - Highland Heights",
    "attributes": {
      "parent_system": "",
      "location_count": 1,
      "locations": [
        {
          "location": "Main",
          "address": "2626 Alexandria PikeHighland Heights, KY 41076-1530",
          "phone": "(859) 371-3376"
        }
      ]
    },
    "source_id": "facility_61",
    "source_file": ""
  },
  {
    "card_type": "entity",
    "entity_type": "MedicalProvider",
    "name": "Domestic Violence  Program - Edgewood",
    "attributes": {
      "parent_system": "",
      "location_count": 1,
      "locations": [
        {
          "location": "Main",
          "address": "1 Medical Village DriveEdgewood, KY 41017",
          "phone": "(859) 301-9266"
        }
      ]
    },
    "source_id": "facility_62",
    "source_file": ""
  },
  {
    "card_type": "entity",
    "entity_type": "MedicalProvider",
    "name": "Edgewood Anti-Coagulation Clinic",
    "attributes": {
      "parent_system": "",
      "location_count": 1,
      "locations": [
        {
          "location": "Main",
          "address": "20 Medical Village Dr.Edgewood, KY 41017",
          "phone": "(859) 301-6790"
        }
      ]
    },
    "source_id": "facility_63",
    "source_file": ""
  },
  {
    "card_type": "entity",
    "entity_type": "MedicalProvider",
    "name": "Family Birth Place - Edgewood",
    "attributes": {
      "parent_system": "",
      "location_count": 1,
      "locations": [
        {
          "location": "Main",
          "address": "1 Medical Village DriveEdgewood, KY 41017",
          "phone": ""
        }
      ]
    },
    "source_id": "facility_64",
    "source_file": ""
  },
  {
    "card_type": "entity",
    "entity_type": "MedicalProvider",
    "name": "Florence Anti-Coagulation Clinic",
    "attributes": {
      "parent_system": "",
      "location_count": 1,
      "locations": [
        {
          "location": "Main",
          "address": "7370 Turfway Rd. Suite 170Florence, KY 41042",
          "phone": "(859) 212-5568"
        }
      ]
    },
    "source_id": "facility_65",
    "source_file": ""
  },
  {
    "card_type": "entity",
    "entity_type": "MedicalProvider",
    "name": "Florence Heart & Vascular Institute Outreach Building",
    "attributes": {
      "parent_system": "",
      "location_count": 1,
      "locations": [
        {
          "location": "Main",
          "address": "4900 Houston RoadFlorence, KY 41042",
          "phone": "(859) 301-5570"
        }
      ]
    },
    "source_id": "facility_66",
    "source_file": ""
  },
  {
    "card_type": "entity",
    "entity_type": "MedicalProvider",
    "name": "Florence Outpatient Pharmacy",
    "attributes": {
      "parent_system": "",
      "location_count": 1,
      "locations": [
        {
          "location": "Main",
          "address": "7370 Turfway Rd.Florence, KY 41042",
          "phone": "(859) 212-4450"
        }
      ]
    },
    "source_id": "facility_67",
    "source_file": ""
  },
  {
    "card_type": "entity",
    "entity_type": "MedicalProvider",
    "name": "Foundation - Edgewood",
    "attributes": {
      "parent_system": "",
      "location_count": 1,
      "locations": [
        {
          "location": "Main",
          "address": "1 Medical Village DriveEdgewood, KY 41017",
          "phone": "(859) 301-3920"
        }
      ]
    },
    "source_id": "facility_68",
    "source_file": ""
  },
  {
    "card_type": "entity",
    "entity_type": "MedicalProvider",
    "name": "Ft. Thomas Anti-Coagulation Clinic",
    "attributes": {
      "parent_system": "",
      "location_count": 1,
      "locations": [
        {
          "location": "Main",
          "address": "85 N. Grand AvenueFt. Thomas, KY 41075",
          "phone": "(859) 572-3790"
        }
      ]
    },
    "source_id": "facility_69",
    "source_file": ""
  },
  {
    "card_type": "entity",
    "entity_type": "MedicalProvider",
    "name": "Gastroenterology - Crestview Hills Centre View",
    "attributes": {
      "parent_system": "",
      "location_count": 1,
      "locations": [
        {
          "location": "Main",
          "address": "651 Centre View BoulevardCrestview Hills, KY 41017-5423",
          "phone": "(859) 331-6466"
        }
      ]
    },
    "source_id": "facility_70",
    "source_file": ""
  },
  {
    "card_type": "entity",
    "entity_type": "MedicalProvider",
    "name": "Gastroenterology - Dearborn",
    "attributes": {
      "parent_system": "",
      "location_count": 1,
      "locations": [
        {
          "location": "Main",
          "address": "600 Wilson Creek RoadLawrenceburg, IN 47025-2751",
          "phone": "(859) 331-6466"
        }
      ]
    },
    "source_id": "facility_71",
    "source_file": ""
  },
  {
    "card_type": "entity",
    "entity_type": "MedicalProvider",
    "name": "Gastroenterology - Edgewood",
    "attributes": {
      "parent_system": "",
      "location_count": 1,
      "locations": [
        {
          "location": "Main",
          "address": "1 Medical Village DriveEdgewood, KY 41017-3403",
          "phone": "(859) 331-6466"
        }
      ]
    },
    "source_id": "facility_72",
    "source_file": ""
  },
  {
    "card_type": "entity",
    "entity_type": "MedicalProvider",
    "name": "Gastroenterology - Florence",
    "attributes": {
      "parent_system": "",
      "location_count": 1,
      "locations": [
        {
          "location": "Main",
          "address": "4900 Houston RoadFlorence, KY 41042-4824",
          "phone": "(859) 331-6466"
        }
      ]
    },
    "source_id": "facility_73",
    "source_file": ""
  },
  {
    "card_type": "entity",
    "entity_type": "MedicalProvider",
    "name": "Gastroenterology - Florence Endoscopy Center – Entrance 1D",
    "attributes": {
      "parent_system": "",
      "location_count": 1,
      "locations": [
        {
          "location": "Main",
          "address": "4900 Houston RoadFlorence, KY 41042-4824",
          "phone": "(859) 331-6466"
        }
      ]
    },
    "source_id": "facility_74",
    "source_file": ""
  },
  {
    "card_type": "entity",
    "entity_type": "MedicalProvider",
    "name": "Gastroenterology - Ft. Thomas",
    "attributes": {
      "parent_system": "",
      "location_count": 1,
      "locations": [
        {
          "location": "Main",
          "address": "85 North Grand AvenueFt. Thomas, KY 41075-1793",
          "phone": "(859) 331-6466"
        }
      ]
    },
    "source_id": "facility_75",
    "source_file": ""
  },
  {
    "card_type": "entity",
    "entity_type": "MedicalProvider",
    "name": "Gastroenterology - Grant",
    "attributes": {
      "parent_system": "",
      "location_count": 1,
      "locations": [
        {
          "location": "Main",
          "address": "238 Barnes RoadWilliamstown, KY 41097-9482",
          "phone": "(859) 331-6466"
        }
      ]
    },
    "source_id": "facility_76",
    "source_file": ""
  },
  {
    "card_type": "entity",
    "entity_type": "MedicalProvider",
    "name": "Gastroenterology - Lawrenceburg",
    "attributes": {
      "parent_system": "",
      "location_count": 1,
      "locations": [
        {
          "location": "Main",
          "address": "606 Wilson Creek RoadLawrenceburg, IN 47025-1095",
          "phone": "(812) 496-8794"
        }
      ]
    },
    "source_id": "facility_77",
    "source_file": ""
  },
  {
    "card_type": "entity",
    "entity_type": "MedicalProvider",
    "name": "Gastroenterology - Newport/Ft. Thomas",
    "attributes": {
      "parent_system": "",
      "location_count": 1,
      "locations": [
        {
          "location": "Main",
          "address": "1400 Grand AvenueNewport, KY 41071-2570",
          "phone": "(859) 331-6466"
        }
      ]
    },
    "source_id": "facility_78",
    "source_file": ""
  },
  {
    "card_type": "entity",
    "entity_type": "MedicalProvider",
    "name": "Gastroenterology - Williamstown",
    "attributes": {
      "parent_system": "",
      "location_count": 1,
      "locations": [
        {
          "location": "Main",
          "address": "300 Barnes RoadWilliamstown, KY 41097-9483",
          "phone": "(859) 331-6466"
        }
      ]
    },
    "source_id": "facility_79",
    "source_file": ""
  },
  {
    "card_type": "entity",
    "entity_type": "MedicalProvider",
    "name": "General Surgery - Edgewood",
    "attributes": {
      "parent_system": "",
      "location_count": 1,
      "locations": [
        {
          "location": "Main",
          "address": "1 Medical Village DriveEdgewood, KY 41017-3403",
          "phone": "(859) 578-5880"
        }
      ]
    },
    "source_id": "facility_80",
    "source_file": ""
  },
  {
    "card_type": "entity",
    "entity_type": "MedicalProvider",
    "name": "General Surgery - Edgewood Suite 254",
    "attributes": {
      "parent_system": "",
      "location_count": 1,
      "locations": [
        {
          "location": "Main",
          "address": "20 Medical Village DriveEdgewood, KY 41017-5401",
          "phone": "(859) 344-1600"
        }
      ]
    },
    "source_id": "facility_81",
    "source_file": ""
  },
  {
    "card_type": "entity",
    "entity_type": "MedicalProvider",
    "name": "General Surgery - Edgewood Suite 271",
    "attributes": {
      "parent_system": "",
      "location_count": 1,
      "locations": [
        {
          "location": "Main",
          "address": "20 Medical Village DriveEdgewood, KY 41017-5401",
          "phone": "(859) 578-5880"
        }
      ]
    },
    "source_id": "facility_82",
    "source_file": ""
  },
  {
    "card_type": "entity",
    "entity_type": "MedicalProvider",
    "name": "General Surgery - Florence",
    "attributes": {
      "parent_system": "",
      "location_count": 1,
      "locations": [
        {
          "location": "Main",
          "address": "4900 Houston RoadFlorence, KY 41042-4824",
          "phone": "(859) 212-4625"
        }
      ]
    },
    "source_id": "facility_83",
    "source_file": ""
  },
  {
    "card_type": "entity",
    "entity_type": "MedicalProvider",
    "name": "General Surgery - Ft. Thomas",
    "attributes": {
      "parent_system": "",
      "location_count": 1,
      "locations": [
        {
          "location": "Main",
          "address": "85 North Grand AvenueFt. Thomas, KY 41075-1793",
          "phone": "(859) 781-2628"
        }
      ]
    },
    "source_id": "facility_84",
    "source_file": ""
  },
  {
    "card_type": "entity",
    "entity_type": "MedicalProvider",
    "name": "General Surgery - Lawrenceburg",
    "attributes": {
      "parent_system": "",
      "location_count": 1,
      "locations": [
        {
          "location": "Main",
          "address": "368 Bielby RoadLawrenceburg, IN 47025-1099",
          "phone": "(812) 496-8771"
        }
      ]
    },
    "source_id": "facility_85",
    "source_file": ""
  },
  {
    "card_type": "entity",
    "entity_type": "MedicalProvider",
    "name": "General Surgery - Newport",
    "attributes": {
      "parent_system": "",
      "location_count": 1,
      "locations": [
        {
          "location": "Main",
          "address": "1400 Grand AvenueNewport, KY 41071-2570",
          "phone": "(859) 441-3818"
        }
      ]
    },
    "source_id": "facility_86",
    "source_file": ""
  },
  {
    "card_type": "entity",
    "entity_type": "MedicalProvider",
    "name": "General Surgery - Owenton",
    "attributes": {
      "parent_system": "",
      "location_count": 1,
      "locations": [
        {
          "location": "Main",
          "address": "120 Progress WayOwenton, KY 40359-6032",
          "phone": "(859) 344-1600"
        }
      ]
    },
    "source_id": "facility_87",
    "source_file": ""
  },
  {
    "card_type": "entity",
    "entity_type": "MedicalProvider",
    "name": "General Surgery - Williamstown",
    "attributes": {
      "parent_system": "",
      "location_count": 1,
      "locations": [
        {
          "location": "Main",
          "address": "238 Barnes RoadWilliamstown, KY 41097-9482",
          "phone": "(859) 824-8104"
        }
      ]
    },
    "source_id": "facility_88",
    "source_file": ""
  },
  {
    "card_type": "entity",
    "entity_type": "MedicalProvider",
    "name": "Geriatrics - Florence",
    "attributes": {
      "parent_system": "",
      "location_count": 1,
      "locations": [
        {
          "location": "Main",
          "address": "4900 Houston RoadFlorence, KY 41042-4824",
          "phone": "(859) 212-4302"
        }
      ]
    },
    "source_id": "facility_89",
    "source_file": ""
  },
  {
    "card_type": "entity",
    "entity_type": "MedicalProvider",
    "name": "Geriatrics - Ft. Thomas",
    "attributes": {
      "parent_system": "",
      "location_count": 1,
      "locations": [
        {
          "location": "Main",
          "address": "85 North Grand AvenueFt. Thomas, KY 41075-4027",
          "phone": "(859) 912-7211"
        }
      ]
    },
    "source_id": "facility_90",
    "source_file": ""
  },
  {
    "card_type": "entity",
    "entity_type": "MedicalProvider",
    "name": "Gift Shop - Dearborn",
    "attributes": {
      "parent_system": "",
      "location_count": 1,
      "locations": [
        {
          "location": "Main",
          "address": "600 Wilson Creek Rd.Lawrenceburg, IN 47025",
          "phone": "(812) 496-7270"
        }
      ]
    },
    "source_id": "facility_91",
    "source_file": ""
  },
  {
    "card_type": "entity",
    "entity_type": "MedicalProvider",
    "name": "Gift Shop - Edgewood",
    "attributes": {
      "parent_system": "",
      "location_count": 1,
      "locations": [
        {
          "location": "Main",
          "address": "1 Medical Village DriveEdgewood, KY 41017",
          "phone": "(859) 301-2137"
        }
      ]
    },
    "source_id": "facility_92",
    "source_file": ""
  },
  {
    "card_type": "entity",
    "entity_type": "MedicalProvider",
    "name": "Gift Shop - Florence",
    "attributes": {
      "parent_system": "",
      "location_count": 1,
      "locations": [
        {
          "location": "Main",
          "address": "4900 Houston RoadFlorence, KY 41042",
          "phone": "(859) 212-5202"
        }
      ]
    },
    "source_id": "facility_93",
    "source_file": ""
  },
  {
    "card_type": "entity",
    "entity_type": "MedicalProvider",
    "name": "Gift Shop - Ft. Thomas",
    "attributes": {
      "parent_system": "",
      "location_count": 1,
      "locations": [
        {
          "location": "Main",
          "address": "85 N. Grand Ave.Ft. Thomas, KY 41075",
          "phone": "(859) 572-3235"
        }
      ]
    },
    "source_id": "facility_94",
    "source_file": ""
  },
  {
    "card_type": "entity",
    "entity_type": "MedicalProvider",
    "name": "Grant County Anti-Coagulation Clinic",
    "attributes": {
      "parent_system": "",
      "location_count": 1,
      "locations": [
        {
          "location": "Main",
          "address": "238 Barnes Rd.Williamstown, KY 41097",
          "phone": "(859) 212-5568"
        }
      ]
    },
    "source_id": "facility_95",
    "source_file": ""
  },
  {
    "card_type": "entity",
    "entity_type": "MedicalProvider",
    "name": "Hand Therapy - Crestview Hills",
    "attributes": {
      "parent_system": "",
      "location_count": 1,
      "locations": [
        {
          "location": "Main",
          "address": "741 Centre View Blvd.Crestview Hills, KY 41017",
          "phone": "(859) 301-5540"
        }
      ]
    },
    "source_id": "facility_96",
    "source_file": ""
  },
  {
    "card_type": "entity",
    "entity_type": "MedicalProvider",
    "name": "Hand Therapy - Dearborn",
    "attributes": {
      "parent_system": "",
      "location_count": 1,
      "locations": [
        {
          "location": "Main",
          "address": "600 Wilson Creek RoadLawrenceburg, IN 47025",
          "phone": "(812) 496-8790"
        }
      ]
    },
    "source_id": "facility_97",
    "source_file": ""
  },
  {
    "card_type": "entity",
    "entity_type": "MedicalProvider",
    "name": "Heart & Vascular - Covington",
    "attributes": {
      "parent_system": "",
      "location_count": 1,
      "locations": [
        {
          "location": "Main",
          "address": "1500 James Simpson Jr WayCovington, KY 41011-0801",
          "phone": "(859) 287-3045"
        }
      ]
    },
    "source_id": "facility_98",
    "source_file": ""
  },
  {
    "card_type": "entity",
    "entity_type": "MedicalProvider",
    "name": "Heart & Vascular - Dearborn",
    "attributes": {
      "parent_system": "",
      "location_count": 1,
      "locations": [
        {
          "location": "Main",
          "address": "600 Wilson Creek RoadLawrenceburg, IN 47025-2751",
          "phone": "(812) 496-4910"
        }
      ]
    },
    "source_id": "facility_99",
    "source_file": ""
  },
  {
    "card_type": "entity",
    "entity_type": "MedicalProvider",
    "name": "Heart & Vascular - Edgewood",
    "attributes": {
      "parent_system": "",
      "location_count": 1,
      "locations": [
        {
          "location": "Main",
          "address": "1 Medical Village DriveEdgewood, KY 41017-3403",
          "phone": "(859) 301-2000"
        }
      ]
    },
    "source_id": "facility_100",
    "source_file": ""
  },
  {
    "card_type": "entity",
    "entity_type": "MedicalProvider",
    "name": "Heart & Vascular - Edgewood Heart & Vascular Institute",
    "attributes": {
      "parent_system": "",
      "location_count": 1,
      "locations": [
        {
          "location": "Main",
          "address": "711 Medical Village DriveEdgewood, KY 41017-3439",
          "phone": "(859) 287-3045"
        }
      ]
    },
    "source_id": "facility_101",
    "source_file": ""
  },
  {
    "card_type": "entity",
    "entity_type": "MedicalProvider",
    "name": "Heart & Vascular - Florence Turfway",
    "attributes": {
      "parent_system": "",
      "location_count": 1,
      "locations": [
        {
          "location": "Main",
          "address": "7388 Turfway RoadFlorence, KY 41042-1381",
          "phone": "(859) 287-3045"
        }
      ]
    },
    "source_id": "facility_102",
    "source_file": ""
  },
  {
    "card_type": "entity",
    "entity_type": "MedicalProvider",
    "name": "Heart & Vascular - HVI Covington",
    "attributes": {
      "parent_system": "",
      "location_count": 1,
      "locations": [
        {
          "location": "Main",
          "address": "1500 James Simpson Jr. WayCovington, KY 41011-0801",
          "phone": "(859) 287-3045"
        }
      ]
    },
    "source_id": "facility_103",
    "source_file": ""
  },
  {
    "card_type": "entity",
    "entity_type": "MedicalProvider",
    "name": "Heart & Vascular - HVI Edgewood",
    "attributes": {
      "parent_system": "",
      "location_count": 1,
      "locations": [
        {
          "location": "Main",
          "address": "1 Medical Village DriveEdgewood, KY 41017-3403",
          "phone": "(859) 301-2000"
        }
      ]
    },
    "source_id": "facility_104",
    "source_file": ""
  },
  {
    "card_type": "entity",
    "entity_type": "MedicalProvider",
    "name": "Heart & Vascular - HVI Edgewood Heart & Vascular Institute",
    "attributes": {
      "parent_system": "",
      "location_count": 1,
      "locations": [
        {
          "location": "Main",
          "address": "711 Medical Village DriveEdgewood, KY 41017-3439",
          "phone": "(859) 287-3045"
        }
      ]
    },
    "source_id": "facility_105",
    "source_file": ""
  },
  {
    "card_type": "entity",
    "entity_type": "MedicalProvider",
    "name": "Heart & Vascular - HVI Florence",
    "attributes": {
      "parent_system": "",
      "location_count": 1,
      "locations": [
        {
          "location": "Main",
          "address": "4900 Houston RoadFlorence, KY 41042-4824",
          "phone": "(859) 212-5200"
        }
      ]
    },
    "source_id": "facility_106",
    "source_file": ""
  },
  {
    "card_type": "entity",
    "entity_type": "MedicalProvider",
    "name": "Heart & Vascular - HVI Florence Turfway",
    "attributes": {
      "parent_system": "",
      "location_count": 1,
      "locations": [
        {
          "location": "Main",
          "address": "7388 Turfway RoadFlorence, KY 41042-1381",
          "phone": "(859) 287-3045"
        }
      ]
    },
    "source_id": "facility_107",
    "source_file": ""
  },
  {
    "card_type": "entity",
    "entity_type": "MedicalProvider",
    "name": "Heart & Vascular - HVI Ft. Thomas",
    "attributes": {
      "parent_system": "",
      "location_count": 1,
      "locations": [
        {
          "location": "Main",
          "address": "85 North Grand AvenueFt. Thomas, KY 41075-1793",
          "phone": "(859) 287-3045"
        }
      ]
    },
    "source_id": "facility_108",
    "source_file": ""
  },
  {
    "card_type": "entity",
    "entity_type": "MedicalProvider",
    "name": "Heart & Vascular - HVI Greendale",
    "attributes": {
      "parent_system": "",
      "location_count": 1,
      "locations": [
        {
          "location": "Main",
          "address": "1640 Flossie DriveGreendale, IN 47025-8424",
          "phone": "(812) 496-4910"
        }
      ]
    },
    "source_id": "facility_109",
    "source_file": ""
  },
  {
    "card_type": "entity",
    "entity_type": "MedicalProvider",
    "name": "Heart & Vascular - HVI Lawrenceburg",
    "attributes": {
      "parent_system": "",
      "location_count": 1,
      "locations": [
        {
          "location": "Main",
          "address": "606 Wilson Creek RoadLawrenceburg, IN 47025-1095",
          "phone": "(812) 496-4910"
        }
      ]
    },
    "source_id": "facility_110",
    "source_file": ""
  },
  {
    "card_type": "entity",
    "entity_type": "MedicalProvider",
    "name": "Heart & Vascular - HVI Newport",
    "attributes": {
      "parent_system": "",
      "location_count": 1,
      "locations": [
        {
          "location": "Main",
          "address": "1400 Grand AvenueNewport, KY 41071-2570",
          "phone": "(859) 287-3045"
        }
      ]
    },
    "source_id": "facility_111",
    "source_file": ""
  },
  {
    "card_type": "entity",
    "entity_type": "MedicalProvider",
    "name": "Heart & Vascular - HVI Williamstown",
    "attributes": {
      "parent_system": "",
      "location_count": 1,
      "locations": [
        {
          "location": "Main",
          "address": "238 Barnes RoadWilliamstown, KY 41097-9482",
          "phone": "(859) 287-3045"
        }
      ]
    },
    "source_id": "facility_112",
    "source_file": ""
  },
  {
    "card_type": "entity",
    "entity_type": "MedicalProvider",
    "name": "Heart & Vascular - Lawrenceburg",
    "attributes": {
      "parent_system": "",
      "location_count": 1,
      "locations": [
        {
          "location": "Main",
          "address": "606 Wilson Creek RoadLawrenceburg, IN 47025-1095",
          "phone": "(812) 496-4910"
        }
      ]
    },
    "source_id": "facility_113",
    "source_file": ""
  },
  {
    "card_type": "entity",
    "entity_type": "MedicalProvider",
    "name": "Heart & Vascular - Newport/Ft. Thomas",
    "attributes": {
      "parent_system": "",
      "location_count": 1,
      "locations": [
        {
          "location": "Main",
          "address": "1400 Grand AvenueNewport, KY 41071-2570",
          "phone": "(859) 287-3045"
        }
      ]
    },
    "source_id": "facility_114",
    "source_file": ""
  },
  {
    "card_type": "entity",
    "entity_type": "MedicalProvider",
    "name": "Heart & Vascular - Williamstown",
    "attributes": {
      "parent_system": "",
      "location_count": 1,
      "locations": [
        {
          "location": "Main",
          "address": "238 Barnes RoadWilliamstown, KY 41097-9482",
          "phone": "(859) 287-3045"
        }
      ]
    },
    "source_id": "facility_115",
    "source_file": ""
  },
  {
    "card_type": "entity",
    "entity_type": "MedicalProvider",
    "name": "Hospice - Edgewood",
    "attributes": {
      "parent_system": "",
      "location_count": 1,
      "locations": [
        {
          "location": "Main",
          "address": "483 South Loop RoadEdgewood, KY 41017-5446",
          "phone": "(859) 301-4600"
        }
      ]
    },
    "source_id": "facility_116",
    "source_file": ""
  },
  {
    "card_type": "entity",
    "entity_type": "MedicalProvider",
    "name": "Hospitalist - Covington",
    "attributes": {
      "parent_system": "",
      "location_count": 1,
      "locations": [
        {
          "location": "Main",
          "address": "1500 James Simpson Jr WayCovington, KY 41011-0801",
          "phone": "(859) 301-8074"
        }
      ]
    },
    "source_id": "facility_117",
    "source_file": ""
  },
  {
    "card_type": "entity",
    "entity_type": "MedicalProvider",
    "name": "Hospitalist - Dearborn",
    "attributes": {
      "parent_system": "",
      "location_count": 1,
      "locations": [
        {
          "location": "Main",
          "address": "600 Wilson Creek RoadLawrenceburg, IN 47025-2751",
          "phone": "(859) 301-8074"
        }
      ]
    },
    "source_id": "facility_118",
    "source_file": ""
  },
  {
    "card_type": "entity",
    "entity_type": "MedicalProvider",
    "name": "Hospitalist - Edgewood",
    "attributes": {
      "parent_system": "",
      "location_count": 1,
      "locations": [
        {
          "location": "Main",
          "address": "1 Medical Village DriveEdgewood, KY 41017-3403",
          "phone": "(859) 301-8074"
        }
      ]
    },
    "source_id": "facility_119",
    "source_file": ""
  },
  {
    "card_type": "entity",
    "entity_type": "MedicalProvider",
    "name": "Hospitalist - Erlanger SUN",
    "attributes": {
      "parent_system": "",
      "location_count": 1,
      "locations": [
        {
          "location": "Main",
          "address": "820 Dolwick DriveErlanger, KY 41018-2774",
          "phone": "(859) 301-5901"
        }
      ]
    },
    "source_id": "facility_120",
    "source_file": ""
  },
  {
    "card_type": "entity",
    "entity_type": "MedicalProvider",
    "name": "Hospitalist - Florence",
    "attributes": {
      "parent_system": "",
      "location_count": 1,
      "locations": [
        {
          "location": "Main",
          "address": "4900 Houston RoadFlorence, KY 41042-4824",
          "phone": "(859) 301-8074"
        }
      ]
    },
    "source_id": "facility_121",
    "source_file": ""
  },
  {
    "card_type": "entity",
    "entity_type": "MedicalProvider",
    "name": "Hospitalist - Ft. Thomas",
    "attributes": {
      "parent_system": "",
      "location_count": 1,
      "locations": [
        {
          "location": "Main",
          "address": "85 North Grand AvenueFt. Thomas, KY 41075-1793",
          "phone": "(859) 301-8074"
        }
      ]
    },
    "source_id": "facility_122",
    "source_file": ""
  },
  {
    "card_type": "entity",
    "entity_type": "MedicalProvider",
    "name": "Hospitalist - Grant",
    "attributes": {
      "parent_system": "",
      "location_count": 1,
      "locations": [
        {
          "location": "Main",
          "address": "238 Barnes RoadWilliamstown, KY 41097-9482",
          "phone": "(859) 301-8074"
        }
      ]
    },
    "source_id": "facility_123",
    "source_file": ""
  },
  {
    "card_type": "entity",
    "entity_type": "MedicalProvider",
    "name": "House Physician - Covington",
    "attributes": {
      "parent_system": "",
      "location_count": 1,
      "locations": [
        {
          "location": "Main",
          "address": "1500 James Simpson Jr WayCovington, KY 41011-0801",
          "phone": "(859) 301-8074"
        }
      ]
    },
    "source_id": "facility_124",
    "source_file": ""
  },
  {
    "card_type": "entity",
    "entity_type": "MedicalProvider",
    "name": "House Physician - Edgewood",
    "attributes": {
      "parent_system": "",
      "location_count": 1,
      "locations": [
        {
          "location": "Main",
          "address": "1 Medical Village DriveEdgewood, KY 41017-3403",
          "phone": "(859) 301-8074"
        }
      ]
    },
    "source_id": "facility_125",
    "source_file": ""
  },
  {
    "card_type": "entity",
    "entity_type": "MedicalProvider",
    "name": "House Physician - Florence",
    "attributes": {
      "parent_system": "",
      "location_count": 1,
      "locations": [
        {
          "location": "Main",
          "address": "4900 Houston RoadFlorence, KY 41042-4824",
          "phone": "(859) 301-8074"
        }
      ]
    },
    "source_id": "facility_126",
    "source_file": ""
  },
  {
    "card_type": "entity",
    "entity_type": "MedicalProvider",
    "name": "House Physician - Ft. Thomas",
    "attributes": {
      "parent_system": "",
      "location_count": 1,
      "locations": [
        {
          "location": "Main",
          "address": "85 North Grand AvenueFt. Thomas, KY 41075-1793",
          "phone": "(859) 301-8074"
        }
      ]
    },
    "source_id": "facility_127",
    "source_file": ""
  },
  {
    "card_type": "entity",
    "entity_type": "MedicalProvider",
    "name": "House Physician - Williamstown",
    "attributes": {
      "parent_system": "",
      "location_count": 1,
      "locations": [
        {
          "location": "Main",
          "address": "238 Barnes RoadWilliamstown, KY 41097-9482",
          "phone": "(859) 301-8074"
        }
      ]
    },
    "source_id": "facility_128",
    "source_file": ""
  },
  {
    "card_type": "entity",
    "entity_type": "MedicalProvider",
    "name": "Imaging - Covington",
    "attributes": {
      "parent_system": "",
      "location_count": 1,
      "locations": [
        {
          "location": "Main",
          "address": "1500 James Simpson Jr. WayCovington, KY 41011",
          "phone": "(859) 655-4360"
        }
      ]
    },
    "source_id": "facility_129",
    "source_file": ""
  },
  {
    "card_type": "entity",
    "entity_type": "MedicalProvider",
    "name": "Imaging - Dearborn",
    "attributes": {
      "parent_system": "",
      "location_count": 1,
      "locations": [
        {
          "location": "Main",
          "address": "600 Wilson Creek Rd.Lawrenceburg, IN 47025",
          "phone": "(812) 496-7230"
        }
      ]
    },
    "source_id": "facility_130",
    "source_file": ""
  },
  {
    "card_type": "entity",
    "entity_type": "MedicalProvider",
    "name": "Imaging - Edgewood",
    "attributes": {
      "parent_system": "",
      "location_count": 1,
      "locations": [
        {
          "location": "Main",
          "address": "1 Medical Village Dr.Edgewood, KY 41017",
          "phone": "(859) 301-2160"
        }
      ]
    },
    "source_id": "facility_131",
    "source_file": ""
  },
  {
    "card_type": "entity",
    "entity_type": "MedicalProvider",
    "name": "Imaging - Florence",
    "attributes": {
      "parent_system": "",
      "location_count": 1,
      "locations": [
        {
          "location": "Main",
          "address": "4900 Houston Rd.Florence, KY 41042",
          "phone": "(859) 212-5420"
        }
      ]
    },
    "source_id": "facility_132",
    "source_file": ""
  },
  {
    "card_type": "entity",
    "entity_type": "MedicalProvider",
    "name": "Imaging - Ft. Thomas",
    "attributes": {
      "parent_system": "",
      "location_count": 1,
      "locations": [
        {
          "location": "Main",
          "address": "85 N. Grand Ave.Ft. Thomas, KY 41075",
          "phone": "(859) 572-3140"
        }
      ]
    },
    "source_id": "facility_133",
    "source_file": ""
  },
  {
    "card_type": "entity",
    "entity_type": "MedicalProvider",
    "name": "Imaging - Grant",
    "attributes": {
      "parent_system": "",
      "location_count": 1,
      "locations": [
        {
          "location": "Main",
          "address": "238 Barnes Rd.Williamstown, KY 41097",
          "phone": "(859) 824-8110"
        }
      ]
    },
    "source_id": "facility_134",
    "source_file": ""
  },
  {
    "card_type": "entity",
    "entity_type": "MedicalProvider",
    "name": "Imaging/Laboratory Services - Alexandria",
    "attributes": {
      "parent_system": "",
      "location_count": 1,
      "locations": [
        {
          "location": "Main",
          "address": "7200 Alexandria PikeAlexandria, KY 41001",
          "phone": "(859) 572-3388"
        }
      ]
    },
    "source_id": "facility_135",
    "source_file": ""
  },
  {
    "card_type": "entity",
    "entity_type": "MedicalProvider",
    "name": "Imaging/Laboratory Services - Hebron",
    "attributes": {
      "parent_system": "",
      "location_count": 1,
      "locations": [
        {
          "location": "Main",
          "address": "2200 Conner RoadHebron, KY 41048",
          "phone": "(859) 212-5100"
        }
      ]
    },
    "source_id": "facility_136",
    "source_file": ""
  },
  {
    "card_type": "entity",
    "entity_type": "MedicalProvider",
    "name": "Imaging/Laboratory Services - Independence",
    "attributes": {
      "parent_system": "",
      "location_count": 1,
      "locations": [
        {
          "location": "Main",
          "address": "135 Courthouse CrossingIndependence, KY 41051",
          "phone": "(859) 301-0990"
        }
      ]
    },
    "source_id": "facility_137",
    "source_file": ""
  },
  {
    "card_type": "entity",
    "entity_type": "MedicalProvider",
    "name": "Imaging/Laboratory Services - Mt. Zion",
    "attributes": {
      "parent_system": "",
      "location_count": 1,
      "locations": [
        {
          "location": "Main",
          "address": "10095 Investment WayFlorence, KY 41042",
          "phone": "(859) 301-7234"
        }
      ]
    },
    "source_id": "facility_138",
    "source_file": ""
  },
  {
    "card_type": "entity",
    "entity_type": "MedicalProvider",
    "name": "Imaging/Laboratory Services - Owen",
    "attributes": {
      "parent_system": "",
      "location_count": 1,
      "locations": [
        {
          "location": "Main",
          "address": "120 Progress WayOwenton, KY 40359",
          "phone": "(502) 484-4600"
        }
      ]
    },
    "source_id": "facility_139",
    "source_file": ""
  },
  {
    "card_type": "entity",
    "entity_type": "MedicalProvider",
    "name": "Infectious Disease - Crestview Hills",
    "attributes": {
      "parent_system": "",
      "location_count": 1,
      "locations": [
        {
          "location": "Main",
          "address": "651 Centre View BoulevardCrestview Hills, KY 41017-5423",
          "phone": "(859) 757-4446"
        }
      ]
    },
    "source_id": "facility_140",
    "source_file": ""
  },
  {
    "card_type": "entity",
    "entity_type": "MedicalProvider",
    "name": "Infectious Disease - Dearborn",
    "attributes": {
      "parent_system": "",
      "location_count": 1,
      "locations": [
        {
          "location": "Main",
          "address": "600 Wilson Creek RoadLawrenceburg, IN 47025-2751",
          "phone": "(859) 757-4446"
        }
      ]
    },
    "source_id": "facility_141",
    "source_file": ""
  },
  {
    "card_type": "entity",
    "entity_type": "MedicalProvider",
    "name": "Infectious Disease - Edgewood",
    "attributes": {
      "parent_system": "",
      "location_count": 1,
      "locations": [
        {
          "location": "Main",
          "address": "1 Medical Village DriveEdgewood, KY 41017-3403",
          "phone": "(859) 344-1512"
        }
      ]
    },
    "source_id": "facility_142",
    "source_file": ""
  },
  {
    "card_type": "entity",
    "entity_type": "MedicalProvider",
    "name": "Infectious Disease - Edgewood 20 Medical",
    "attributes": {
      "parent_system": "",
      "location_count": 1,
      "locations": [
        {
          "location": "Main",
          "address": "20 Medical Village DriveEdgewood, KY 41017-5401",
          "phone": "(859) 344-1512"
        }
      ]
    },
    "source_id": "facility_143",
    "source_file": ""
  },
  {
    "card_type": "entity",
    "entity_type": "MedicalProvider",
    "name": "Infectious Disease - Florence",
    "attributes": {
      "parent_system": "",
      "location_count": 1,
      "locations": [
        {
          "location": "Main",
          "address": "4900 Houston RoadFlorence, KY 41042-4824",
          "phone": "(859) 757-4446"
        }
      ]
    },
    "source_id": "facility_144",
    "source_file": ""
  },
  {
    "card_type": "entity",
    "entity_type": "MedicalProvider",
    "name": "Infectious Disease - Florence 7388 Turfway",
    "attributes": {
      "parent_system": "",
      "location_count": 1,
      "locations": [
        {
          "location": "Main",
          "address": "7388 Turfway RoadFlorence, KY 41042-1381",
          "phone": "(859) 757-4446"
        }
      ]
    },
    "source_id": "facility_145",
    "source_file": ""
  },
  {
    "card_type": "entity",
    "entity_type": "MedicalProvider",
    "name": "Infectious Disease - Florence Turfway",
    "attributes": {
      "parent_system": "",
      "location_count": 1,
      "locations": [
        {
          "location": "Main",
          "address": "7370 Turfway RoadFlorence, KY 41042-4896",
          "phone": "(859) 757-4446"
        }
      ]
    },
    "source_id": "facility_146",
    "source_file": ""
  },
  {
    "card_type": "entity",
    "entity_type": "MedicalProvider",
    "name": "Infectious Disease - Ft. Thomas",
    "attributes": {
      "parent_system": "",
      "location_count": 1,
      "locations": [
        {
          "location": "Main",
          "address": "85 North Grand AvenueFt. Thomas, KY 41075-1793",
          "phone": "(859) 757-4446"
        }
      ]
    },
    "source_id": "facility_147",
    "source_file": ""
  },
  {
    "card_type": "entity",
    "entity_type": "MedicalProvider",
    "name": "Infectious Disease - Lawrenceburg",
    "attributes": {
      "parent_system": "",
      "location_count": 1,
      "locations": [
        {
          "location": "Main",
          "address": "606 Wilson Creek RoadLawrenceburg, IN 47025-1035",
          "phone": "(859) 757-4446"
        }
      ]
    },
    "source_id": "facility_148",
    "source_file": ""
  },
  {
    "card_type": "entity",
    "entity_type": "MedicalProvider",
    "name": "Intensive Care Units - Dearborn",
    "attributes": {
      "parent_system": "",
      "location_count": 1,
      "locations": [
        {
          "location": "Main",
          "address": "600 Wilson Creek Rd.Lawrenceburg, IN 47025",
          "phone": "(812) 496-8267"
        }
      ]
    },
    "source_id": "facility_149",
    "source_file": ""
  },
  {
    "card_type": "entity",
    "entity_type": "MedicalProvider",
    "name": "Intensive Care Units - Edgewood",
    "attributes": {
      "parent_system": "",
      "location_count": 1,
      "locations": [
        {
          "location": "Main",
          "address": "1 Medical Village DriveEdgwood, KY 41017",
          "phone": "(859) 301-2300"
        }
      ]
    },
    "source_id": "facility_150",
    "source_file": ""
  },
  {
    "card_type": "entity",
    "entity_type": "MedicalProvider",
    "name": "Intensive Care Units - Florence",
    "attributes": {
      "parent_system": "",
      "location_count": 1,
      "locations": [
        {
          "location": "Main",
          "address": "4900 Houston RoadFlorence, KY 41042",
          "phone": "(859) 212-4213"
        }
      ]
    },
    "source_id": "facility_151",
    "source_file": ""
  },
  {
    "card_type": "entity",
    "entity_type": "MedicalProvider",
    "name": "Intensive Care Units - Ft. Thomas",
    "attributes": {
      "parent_system": "",
      "location_count": 1,
      "locations": [
        {
          "location": "Main",
          "address": "85 N. Grand AvenueFt. Thomas, KY 41075",
          "phone": "(859) 572-3160"
        }
      ]
    },
    "source_id": "facility_152",
    "source_file": ""
  },
  {
    "card_type": "entity",
    "entity_type": "MedicalProvider",
    "name": "Journey Recovery Center - Aurora Links",
    "attributes": {
      "parent_system": "",
      "location_count": 1,
      "locations": [
        {
          "location": "Main",
          "address": "112 Links WayAurora, IN 47001-1403",
          "phone": "812-496-8785"
        }
      ]
    },
    "source_id": "facility_153",
    "source_file": ""
  },
  {
    "card_type": "entity",
    "entity_type": "MedicalProvider",
    "name": "Journey Recovery Center - Covington Suite 300",
    "attributes": {
      "parent_system": "",
      "location_count": 1,
      "locations": [
        {
          "location": "Main",
          "address": "20 West 18th StreetCovington, KY 41011-3329",
          "phone": "(859) 757-0717"
        }
      ]
    },
    "source_id": "facility_154",
    "source_file": ""
  },
  {
    "card_type": "entity",
    "entity_type": "MedicalProvider",
    "name": "Journey Recovery Center - Dry Ridge",
    "attributes": {
      "parent_system": "",
      "location_count": 1,
      "locations": [
        {
          "location": "Main",
          "address": "100 Blackburn LaneDry Ridge, KY 41035-8806",
          "phone": "(859) 757-0717"
        }
      ]
    },
    "source_id": "facility_155",
    "source_file": ""
  },
  {
    "card_type": "entity",
    "entity_type": "MedicalProvider",
    "name": "Laboratory Services - Covington Main Entrance",
    "attributes": {
      "parent_system": "",
      "location_count": 1,
      "locations": [
        {
          "location": "Main",
          "address": "1500 James Simpson Jr. WayCovington, KY 41011",
          "phone": "(859) 655-4366"
        }
      ]
    },
    "source_id": "facility_156",
    "source_file": ""
  },
  {
    "card_type": "entity",
    "entity_type": "MedicalProvider",
    "name": "Laboratory Services - Crestview Hills",
    "attributes": {
      "parent_system": "",
      "location_count": 1,
      "locations": [
        {
          "location": "Main",
          "address": "334 Thomas More Pkwy. Ste. 110Crestview Hills, KY 41017",
          "phone": "(859) 331-3302"
        }
      ]
    },
    "source_id": "facility_157",
    "source_file": ""
  },
  {
    "card_type": "entity",
    "entity_type": "MedicalProvider",
    "name": "Laboratory Services - Crittenden MOB",
    "attributes": {
      "parent_system": "",
      "location_count": 1,
      "locations": [
        {
          "location": "Main",
          "address": "405 Violet Rd.Crittenden, KY 41030",
          "phone": "(859) 903-0087"
        }
      ]
    },
    "source_id": "facility_158",
    "source_file": ""
  },
  {
    "card_type": "entity",
    "entity_type": "MedicalProvider",
    "name": "Laboratory Services - Dearborn Main Entrance",
    "attributes": {
      "parent_system": "",
      "location_count": 1,
      "locations": [
        {
          "location": "Main",
          "address": "600 Wilson Creek RoadLawrenceburg, IN 47025",
          "phone": "(812) 496-7300"
        }
      ]
    },
    "source_id": "facility_159",
    "source_file": ""
  },
  {
    "card_type": "entity",
    "entity_type": "MedicalProvider",
    "name": "Laboratory Services - Edgewood 3A Patient Entrance",
    "attributes": {
      "parent_system": "",
      "location_count": 1,
      "locations": [
        {
          "location": "Main",
          "address": "1 Medical Village DriveEdgewood, KY 41017",
          "phone": "(859) 301-5649"
        }
      ]
    },
    "source_id": "facility_160",
    "source_file": ""
  },
  {
    "card_type": "entity",
    "entity_type": "MedicalProvider",
    "name": "Laboratory Services - Florence 3A Outpatient Entrance",
    "attributes": {
      "parent_system": "",
      "location_count": 1,
      "locations": [
        {
          "location": "Main",
          "address": "4900 Houston RoadFlorence, KY 41042",
          "phone": "(859) 212-5450"
        }
      ]
    },
    "source_id": "facility_161",
    "source_file": ""
  },
  {
    "card_type": "entity",
    "entity_type": "MedicalProvider",
    "name": "Laboratory Services - Florence Turfway",
    "attributes": {
      "parent_system": "",
      "location_count": 1,
      "locations": [
        {
          "location": "Main",
          "address": "7300 Turfway Rd Ste. 150Florence, KY 41042",
          "phone": "(859) 578-5010"
        }
      ]
    },
    "source_id": "facility_162",
    "source_file": ""
  },
  {
    "card_type": "entity",
    "entity_type": "MedicalProvider",
    "name": "Laboratory Services - Ft. Thomas 1A Main Entrance",
    "attributes": {
      "parent_system": "",
      "location_count": 1,
      "locations": [
        {
          "location": "Main",
          "address": "85 N. Grand AvenueFt. Thomas, KY 41075",
          "phone": "(859) 572-3198"
        }
      ]
    },
    "source_id": "facility_163",
    "source_file": ""
  },
  {
    "card_type": "entity",
    "entity_type": "MedicalProvider",
    "name": "Laboratory Services - Ft. Thomas MOB",
    "attributes": {
      "parent_system": "",
      "location_count": 1,
      "locations": [
        {
          "location": "Main",
          "address": "1400 N. Grand Ave.Newport, KY 41075",
          "phone": "(859) 905-3893"
        }
      ]
    },
    "source_id": "facility_164",
    "source_file": ""
  },
  {
    "card_type": "entity",
    "entity_type": "MedicalProvider",
    "name": "Laboratory Services - Grant 2A Outpatient",
    "attributes": {
      "parent_system": "",
      "location_count": 1,
      "locations": [
        {
          "location": "Main",
          "address": "238 Barnes RoadWilliamstown, KY 41097",
          "phone": "(859) 824-8194"
        }
      ]
    },
    "source_id": "facility_165",
    "source_file": ""
  },
  {
    "card_type": "entity",
    "entity_type": "MedicalProvider",
    "name": "Laboratory Services - Greendale MOB",
    "attributes": {
      "parent_system": "",
      "location_count": 1,
      "locations": [
        {
          "location": "Main",
          "address": "1640 Flossie Dr.Greendale, IN 47025",
          "phone": "(812) 496-3500"
        }
      ]
    },
    "source_id": "facility_166",
    "source_file": ""
  },
  {
    "card_type": "entity",
    "entity_type": "MedicalProvider",
    "name": "Laboratory Services - Richwood MOB",
    "attributes": {
      "parent_system": "",
      "location_count": 1,
      "locations": [
        {
          "location": "Main",
          "address": "605 Man O War Blvd.Union, KY 41091",
          "phone": "(859) 578-5673"
        }
      ]
    },
    "source_id": "facility_167",
    "source_file": ""
  },
  {
    "card_type": "entity",
    "entity_type": "MedicalProvider",
    "name": "Laboratory Services - Taylor Mill",
    "attributes": {
      "parent_system": "",
      "location_count": 1,
      "locations": [
        {
          "location": "Main",
          "address": "5100 Peace WayTaylor Mill, KY 41015",
          "phone": "(859) 578-5390"
        }
      ]
    },
    "source_id": "facility_168",
    "source_file": ""
  },
  {
    "card_type": "entity",
    "entity_type": "MedicalProvider",
    "name": "Laboratory Services - US 42 Union",
    "attributes": {
      "parent_system": "",
      "location_count": 1,
      "locations": [
        {
          "location": "Main",
          "address": "8726 US 42Florence, KY 41042",
          "phone": "(859) 795-5446"
        }
      ]
    },
    "source_id": "facility_169",
    "source_file": ""
  },
  {
    "card_type": "entity",
    "entity_type": "MedicalProvider",
    "name": "Laborist - Edgewood",
    "attributes": {
      "parent_system": "",
      "location_count": 1,
      "locations": [
        {
          "location": "Main",
          "address": "1 Medical Village DriveEdgewood, KY 41017-3403",
          "phone": "(859) 301-2440"
        }
      ]
    },
    "source_id": "facility_170",
    "source_file": ""
  },
  {
    "card_type": "entity",
    "entity_type": "MedicalProvider",
    "name": "MOHS Surgery - Crestview Hills",
    "attributes": {
      "parent_system": "",
      "location_count": 1,
      "locations": [
        {
          "location": "Main",
          "address": "651 Centre View BoulevardCrestview Hills, KY 41017-5423",
          "phone": "(859) 301-6647"
        }
      ]
    },
    "source_id": "facility_171",
    "source_file": ""
  },
  {
    "card_type": "entity",
    "entity_type": "MedicalProvider",
    "name": "Mammography and Dexa Screening Center",
    "attributes": {
      "parent_system": "",
      "location_count": 1,
      "locations": [
        {
          "location": "Main",
          "address": "600 Medical Village Dr.Edgewood, KY 41017",
          "phone": "(859) 301-6382"
        }
      ]
    },
    "source_id": "facility_172",
    "source_file": ""
  },
  {
    "card_type": "entity",
    "entity_type": "MedicalProvider",
    "name": "Medical Village Pharmacy",
    "attributes": {
      "parent_system": "",
      "location_count": 1,
      "locations": [
        {
          "location": "Main",
          "address": "20 Medical Village Dr.Edgewood, KY 41017",
          "phone": "(859) 301-9025"
        }
      ]
    },
    "source_id": "facility_173",
    "source_file": ""
  },
  {
    "card_type": "entity",
    "entity_type": "MedicalProvider",
    "name": "Mobile Mammography Unit",
    "attributes": {
      "parent_system": "",
      "location_count": 1,
      "locations": [
        {
          "location": "Main",
          "address": "1 Medical Village DriveEdgewood, KY 41017",
          "phone": "(877) 424-5750"
        }
      ]
    },
    "source_id": "facility_174",
    "source_file": ""
  },
  {
    "card_type": "entity",
    "entity_type": "MedicalProvider",
    "name": "Neurology - Crestview Hills",
    "attributes": {
      "parent_system": "",
      "location_count": 1,
      "locations": [
        {
          "location": "Main",
          "address": "2670 Chancellor DriveCrestview Hills, KY 41017-5466",
          "phone": "(859) 957-0052"
        }
      ]
    },
    "source_id": "facility_175",
    "source_file": ""
  },
  {
    "card_type": "entity",
    "entity_type": "MedicalProvider",
    "name": "Neurology - Edgewood",
    "attributes": {
      "parent_system": "",
      "location_count": 1,
      "locations": [
        {
          "location": "Main",
          "address": "1 Medical Village DriveEdgewood, KY 41017-3403",
          "phone": "(859) 957-0052"
        }
      ]
    },
    "source_id": "facility_176",
    "source_file": ""
  },
  {
    "card_type": "entity",
    "entity_type": "MedicalProvider",
    "name": "Neurology - Edgewood EMG",
    "attributes": {
      "parent_system": "",
      "location_count": 1,
      "locations": [
        {
          "location": "Main",
          "address": "2670 Chancellor Drive 100 BCrestview Hills, KY 41017-5466",
          "phone": "(859) 957-0052"
        }
      ]
    },
    "source_id": "facility_177",
    "source_file": ""
  },
  {
    "card_type": "entity",
    "entity_type": "MedicalProvider",
    "name": "Neurology - Florence",
    "attributes": {
      "parent_system": "",
      "location_count": 1,
      "locations": [
        {
          "location": "Main",
          "address": "4900 Houston RoadFlorence, KY 41042-4824",
          "phone": "(859) 957-0052"
        }
      ]
    },
    "source_id": "facility_178",
    "source_file": ""
  },
  {
    "card_type": "entity",
    "entity_type": "MedicalProvider",
    "name": "Neurology - Florence Turfway",
    "attributes": {
      "parent_system": "",
      "location_count": 1,
      "locations": [
        {
          "location": "Main",
          "address": "7370 Turfway RoadFlorence, KY 41042-4896",
          "phone": "(859) 957-0052"
        }
      ]
    },
    "source_id": "facility_179",
    "source_file": ""
  },
  {
    "card_type": "entity",
    "entity_type": "MedicalProvider",
    "name": "Neurology - Ft. Thomas",
    "attributes": {
      "parent_system": "",
      "location_count": 1,
      "locations": [
        {
          "location": "Main",
          "address": "85 North Grand AvenueFt. Thomas, KY 41075-1793",
          "phone": "(859) 957-0052"
        }
      ]
    },
    "source_id": "facility_180",
    "source_file": ""
  },
  {
    "card_type": "entity",
    "entity_type": "MedicalProvider",
    "name": "Neurology - Greendale",
    "attributes": {
      "parent_system": "",
      "location_count": 1,
      "locations": [
        {
          "location": "Main",
          "address": "1640 Flossie DriveGreendale, IN 47025-8424",
          "phone": "(859) 957-0052"
        }
      ]
    },
    "source_id": "facility_181",
    "source_file": ""
  },
  {
    "card_type": "entity",
    "entity_type": "MedicalProvider",
    "name": "Neurology - Highland Heights",
    "attributes": {
      "parent_system": "",
      "location_count": 1,
      "locations": [
        {
          "location": "Main",
          "address": "2626 Alexandria PikeHighland Heights, KY 41076-1530",
          "phone": "(859) 957-0052"
        }
      ]
    },
    "source_id": "facility_182",
    "source_file": ""
  },
  {
    "card_type": "entity",
    "entity_type": "MedicalProvider",
    "name": "Neurology - Newport/Ft. Thomas",
    "attributes": {
      "parent_system": "",
      "location_count": 1,
      "locations": [
        {
          "location": "Main",
          "address": "1400 Grand AvenueNewport, KY 41071-2570",
          "phone": "(859) 957-0052"
        }
      ]
    },
    "source_id": "facility_183",
    "source_file": ""
  },
  {
    "card_type": "entity",
    "entity_type": "MedicalProvider",
    "name": "Nutrition Services - Edgewood",
    "attributes": {
      "parent_system": "",
      "location_count": 1,
      "locations": [
        {
          "location": "Main",
          "address": "1 Medical Village DriveEdgewood, KY 41017",
          "phone": "(859) 301-2000"
        }
      ]
    },
    "source_id": "facility_184",
    "source_file": ""
  },
  {
    "card_type": "entity",
    "entity_type": "MedicalProvider",
    "name": "Nutrition Services - Florence",
    "attributes": {
      "parent_system": "",
      "location_count": 1,
      "locations": [
        {
          "location": "Main",
          "address": "4900 Houston RoadFlorence, KY 41042",
          "phone": "(859) 212-5200"
        }
      ]
    },
    "source_id": "facility_185",
    "source_file": ""
  },
  {
    "card_type": "entity",
    "entity_type": "MedicalProvider",
    "name": "Nutrition Services - Ft. Thomas",
    "attributes": {
      "parent_system": "",
      "location_count": 1,
      "locations": [
        {
          "location": "Main",
          "address": "85 N. Grand AvenueFt. Thomas, KY 41075",
          "phone": "(859) 572-3100"
        }
      ]
    },
    "source_id": "facility_186",
    "source_file": ""
  },
  {
    "card_type": "entity",
    "entity_type": "MedicalProvider",
    "name": "Occupational Therapy - Crestview Hills",
    "attributes": {
      "parent_system": "",
      "location_count": 1,
      "locations": [
        {
          "location": "Main",
          "address": "741 Centre View Blvd.Crestview Hills, KY 41017",
          "phone": "(859) 301-2168"
        }
      ]
    },
    "source_id": "facility_187",
    "source_file": ""
  },
  {
    "card_type": "entity",
    "entity_type": "MedicalProvider",
    "name": "Occupational Therapy - Dearborn",
    "attributes": {
      "parent_system": "",
      "location_count": 1,
      "locations": [
        {
          "location": "Main",
          "address": "600 Wilson Creek RoadLawrenceburg, IN 47025",
          "phone": "(812) 496-8790"
        }
      ]
    },
    "source_id": "facility_188",
    "source_file": ""
  },
  {
    "card_type": "entity",
    "entity_type": "MedicalProvider",
    "name": "Occupational Therapy - Florence",
    "attributes": {
      "parent_system": "",
      "location_count": 1,
      "locations": [
        {
          "location": "Main",
          "address": "4900 Houston RoadFlorence, KY 41042",
          "phone": "(859) 212-5400"
        }
      ]
    },
    "source_id": "facility_189",
    "source_file": ""
  },
  {
    "card_type": "entity",
    "entity_type": "MedicalProvider",
    "name": "Occupational Therapy - Ft. Thomas",
    "attributes": {
      "parent_system": "",
      "location_count": 1,
      "locations": [
        {
          "location": "Main",
          "address": "85 North Grand AvenueFt. Thomas, KY 41075",
          "phone": "(859) 572-3120"
        }
      ]
    },
    "source_id": "facility_190",
    "source_file": ""
  },
  {
    "card_type": "entity",
    "entity_type": "MedicalProvider",
    "name": "Oncology - Dearborn Cancer Center",
    "attributes": {
      "parent_system": "",
      "location_count": 1,
      "locations": [
        {
          "location": "Main",
          "address": "17525 Greendale Plaza DriveGreendale, IN 47025-8299",
          "phone": "(859) 301-4000"
        }
      ]
    },
    "source_id": "facility_191",
    "source_file": ""
  },
  {
    "card_type": "entity",
    "entity_type": "MedicalProvider",
    "name": "Oncology - Edgewood Cancer Center",
    "attributes": {
      "parent_system": "",
      "location_count": 1,
      "locations": [
        {
          "location": "Main",
          "address": "1 Medical Village DriveEdgewood, KY 41017-3403",
          "phone": "(859) 301-4000"
        }
      ]
    },
    "source_id": "facility_192",
    "source_file": ""
  },
  {
    "card_type": "entity",
    "entity_type": "MedicalProvider",
    "name": "Oncology - Ft. Thomas",
    "attributes": {
      "parent_system": "",
      "location_count": 1,
      "locations": [
        {
          "location": "Main",
          "address": "85 North Grand AvenueFt. Thomas, KY 41075-1793",
          "phone": "(859) 572-3298"
        }
      ]
    },
    "source_id": "facility_193",
    "source_file": ""
  },
  {
    "card_type": "entity",
    "entity_type": "MedicalProvider",
    "name": "Oncology - Grant",
    "attributes": {
      "parent_system": "",
      "location_count": 1,
      "locations": [
        {
          "location": "Main",
          "address": "238 Barnes RoadWilliamstown, KY 41097-9482",
          "phone": "(859) 824-8210"
        }
      ]
    },
    "source_id": "facility_194",
    "source_file": ""
  },
  {
    "card_type": "entity",
    "entity_type": "MedicalProvider",
    "name": "Ophthalmology - Batesville",
    "attributes": {
      "parent_system": "",
      "location_count": 1,
      "locations": [
        {
          "location": "Main",
          "address": "374 Northside DriveBatesville, IN 47006-7038",
          "phone": "(812) 496-8782"
        }
      ]
    },
    "source_id": "facility_195",
    "source_file": ""
  },
  {
    "card_type": "entity",
    "entity_type": "MedicalProvider",
    "name": "Ophthalmology - Covington",
    "attributes": {
      "parent_system": "",
      "location_count": 1,
      "locations": [
        {
          "location": "Main",
          "address": "1500 James Simpson Jr WayCovington, KY 41011-0801",
          "phone": "(859) 655-3111"
        }
      ]
    },
    "source_id": "facility_196",
    "source_file": ""
  },
  {
    "card_type": "entity",
    "entity_type": "MedicalProvider",
    "name": "Ophthalmology - Dearborn",
    "attributes": {
      "parent_system": "",
      "location_count": 1,
      "locations": [
        {
          "location": "Main",
          "address": "600 Wilson Creek RoadLawrenceburg, IN 47025-2751",
          "phone": "(812) 496-8781"
        }
      ]
    },
    "source_id": "facility_197",
    "source_file": ""
  },
  {
    "card_type": "entity",
    "entity_type": "MedicalProvider",
    "name": "Ophthalmology - Edgewood South Loop",
    "attributes": {
      "parent_system": "",
      "location_count": 1,
      "locations": [
        {
          "location": "Main",
          "address": "580 South Loop RoadEdgewood, KY 41017-3415",
          "phone": "(859) 301-6099"
        }
      ]
    },
    "source_id": "facility_198",
    "source_file": ""
  },
  {
    "card_type": "entity",
    "entity_type": "MedicalProvider",
    "name": "Ophthalmology - Florence",
    "attributes": {
      "parent_system": "",
      "location_count": 1,
      "locations": [
        {
          "location": "Main",
          "address": "7370 Turfway RoadFlorence, KY 41042-4896",
          "phone": "(859) 746-1990"
        }
      ]
    },
    "source_id": "facility_199",
    "source_file": ""
  },
  {
    "card_type": "entity",
    "entity_type": "MedicalProvider",
    "name": "Ophthalmology - Fort Thomas",
    "attributes": {
      "parent_system": "",
      "location_count": 1,
      "locations": [
        {
          "location": "Main",
          "address": "85 North Grand AvenueFt. Thomas, KY 41075-1793",
          "phone": "(859) 781-3110"
        }
      ]
    },
    "source_id": "facility_200",
    "source_file": ""
  },
  {
    "card_type": "entity",
    "entity_type": "MedicalProvider",
    "name": "Ophthalmology - Lawrenceburg",
    "attributes": {
      "parent_system": "",
      "location_count": 1,
      "locations": [
        {
          "location": "Main",
          "address": "606 Wilson Creek RoadLawrenceburg, IN 47025-1095",
          "phone": "(812) 496-8781"
        }
      ]
    },
    "source_id": "facility_201",
    "source_file": ""
  },
  {
    "card_type": "entity",
    "entity_type": "MedicalProvider",
    "name": "Ophthalmology - Newport/Ft. Thomas",
    "attributes": {
      "parent_system": "",
      "location_count": 1,
      "locations": [
        {
          "location": "Main",
          "address": "1400 Grand AvenueNewport, KY 41071-2570",
          "phone": "(859) 781-3110"
        }
      ]
    },
    "source_id": "facility_202",
    "source_file": ""
  },
  {
    "card_type": "entity",
    "entity_type": "MedicalProvider",
    "name": "Osteopathic Neuromusculoskeletal Medicine - Florence Turfway",
    "attributes": {
      "parent_system": "",
      "location_count": 1,
      "locations": [
        {
          "location": "Main",
          "address": "7300 Turfway RoadFlorence, KY 41042-3801",
          "phone": "(859) 655-8980"
        }
      ]
    },
    "source_id": "facility_203",
    "source_file": ""
  },
  {
    "card_type": "entity",
    "entity_type": "MedicalProvider",
    "name": "Palliative Care - Dearborn",
    "attributes": {
      "parent_system": "",
      "location_count": 1,
      "locations": [
        {
          "location": "Main",
          "address": "600 Wilson Creek RoadLawrenceburg, IN 47025-2751",
          "phone": "(812) 537-1010"
        }
      ]
    },
    "source_id": "facility_204",
    "source_file": ""
  },
  {
    "card_type": "entity",
    "entity_type": "MedicalProvider",
    "name": "Palliative Care - Edgewood",
    "attributes": {
      "parent_system": "",
      "location_count": 1,
      "locations": [
        {
          "location": "Main",
          "address": "1 Medical Village DriveEdgewood, KY 41017-3403",
          "phone": "(859) 301-4688"
        }
      ]
    },
    "source_id": "facility_205",
    "source_file": ""
  },
  {
    "card_type": "entity",
    "entity_type": "MedicalProvider",
    "name": "Palliative Care - Florence",
    "attributes": {
      "parent_system": "",
      "location_count": 1,
      "locations": [
        {
          "location": "Main",
          "address": "4900 Houston RoadFlorence, KY 41042-4824",
          "phone": "(859) 301-4688"
        }
      ]
    },
    "source_id": "facility_206",
    "source_file": ""
  },
  {
    "card_type": "entity",
    "entity_type": "MedicalProvider",
    "name": "Palliative Care - Ft. Thomas",
    "attributes": {
      "parent_system": "",
      "location_count": 1,
      "locations": [
        {
          "location": "Main",
          "address": "85 North Grand AvenueFt. Thomas, KY 41075-1793",
          "phone": "(859) 301-4688"
        }
      ]
    },
    "source_id": "facility_207",
    "source_file": ""
  },
  {
    "card_type": "entity",
    "entity_type": "MedicalProvider",
    "name": "Palliative Care - The Yung Family Cancer Center",
    "attributes": {
      "parent_system": "",
      "location_count": 1,
      "locations": [
        {
          "location": "Main",
          "address": "1 Medical Village DriveEdgewood, KY 41017",
          "phone": "(859) 301-2237"
        }
      ]
    },
    "source_id": "facility_208",
    "source_file": ""
  },
  {
    "card_type": "entity",
    "entity_type": "MedicalProvider",
    "name": "Pathology- Covington",
    "attributes": {
      "parent_system": "",
      "location_count": 1,
      "locations": [
        {
          "location": "Main",
          "address": "1500 James Simpson Jr WayCovington, KY 41011-0801",
          "phone": "(859) 301-2018"
        }
      ]
    },
    "source_id": "facility_209",
    "source_file": ""
  },
  {
    "card_type": "entity",
    "entity_type": "MedicalProvider",
    "name": "Pathology- Edgewood",
    "attributes": {
      "parent_system": "",
      "location_count": 1,
      "locations": [
        {
          "location": "Main",
          "address": "1 Medical Village DriveEdgewood, KY 41017-3403",
          "phone": "(859) 301-2018"
        }
      ]
    },
    "source_id": "facility_210",
    "source_file": ""
  },
  {
    "card_type": "entity",
    "entity_type": "MedicalProvider",
    "name": "Pathology- Florence",
    "attributes": {
      "parent_system": "",
      "location_count": 1,
      "locations": [
        {
          "location": "Main",
          "address": "4900 Houston RoadFlorence, KY 41042-4824",
          "phone": "(859) 301-2018"
        }
      ]
    },
    "source_id": "facility_211",
    "source_file": ""
  },
  {
    "card_type": "entity",
    "entity_type": "MedicalProvider",
    "name": "Patient Logistics",
    "attributes": {
      "parent_system": "",
      "location_count": 1,
      "locations": [
        {
          "location": "Main",
          "address": "1 Medical Village DriveEdgewood, KY 41017",
          "phone": ""
        }
      ]
    },
    "source_id": "facility_212",
    "source_file": ""
  },
  {
    "card_type": "entity",
    "entity_type": "MedicalProvider",
    "name": "Physiatry - Crestview Hills Centre View",
    "attributes": {
      "parent_system": "",
      "location_count": 1,
      "locations": [
        {
          "location": "Main",
          "address": "651 Centre View BoulevardCrestview Hills, KY 41017-5423",
          "phone": "(859) 578-5665"
        }
      ]
    },
    "source_id": "facility_213",
    "source_file": ""
  },
  {
    "card_type": "entity",
    "entity_type": "MedicalProvider",
    "name": "Physical Therapy & Sports Medicine - Mt. Zion",
    "attributes": {
      "parent_system": "",
      "location_count": 1,
      "locations": [
        {
          "location": "Main",
          "address": "10095 Investment WayFlorence, KY 41042-4798",
          "phone": "(859) 301-9070"
        }
      ]
    },
    "source_id": "facility_214",
    "source_file": ""
  },
  {
    "card_type": "entity",
    "entity_type": "MedicalProvider",
    "name": "Physical Therapy - Alexandria",
    "attributes": {
      "parent_system": "",
      "location_count": 1,
      "locations": [
        {
          "location": "Main",
          "address": "7200 Alexandria PikeAlexandria, KY 41001",
          "phone": "(859) 572-3700"
        }
      ]
    },
    "source_id": "facility_215",
    "source_file": ""
  },
  {
    "card_type": "entity",
    "entity_type": "MedicalProvider",
    "name": "Physical Therapy - Burlington",
    "attributes": {
      "parent_system": "",
      "location_count": 1,
      "locations": [
        {
          "location": "Main",
          "address": "5874 Veterans WayBurlington, KY 41005",
          "phone": "(859) 212-4200"
        }
      ]
    },
    "source_id": "facility_216",
    "source_file": ""
  },
  {
    "card_type": "entity",
    "entity_type": "MedicalProvider",
    "name": "Physical Therapy - Covington",
    "attributes": {
      "parent_system": "",
      "location_count": 1,
      "locations": [
        {
          "location": "Main",
          "address": "1500 James Simpson, Jr. WayCovington, KY 41011",
          "phone": "(859) 655-4268"
        }
      ]
    },
    "source_id": "facility_217",
    "source_file": ""
  },
  {
    "card_type": "entity",
    "entity_type": "MedicalProvider",
    "name": "Physical Therapy - Crestview Hills",
    "attributes": {
      "parent_system": "",
      "location_count": 1,
      "locations": [
        {
          "location": "Main",
          "address": "741 Centre View Blvd.Crestview Hills, KY 41017",
          "phone": "(859) 301-2168"
        }
      ]
    },
    "source_id": "facility_218",
    "source_file": ""
  },
  {
    "card_type": "entity",
    "entity_type": "MedicalProvider",
    "name": "Physical Therapy - Dearborn",
    "attributes": {
      "parent_system": "",
      "location_count": 1,
      "locations": [
        {
          "location": "Main",
          "address": "600 Wilson Creek RoadLawrenceburg, IN 47025",
          "phone": "(812) 496-8790"
        }
      ]
    },
    "source_id": "facility_219",
    "source_file": ""
  },
  {
    "card_type": "entity",
    "entity_type": "MedicalProvider",
    "name": "Physical Therapy - Erlanger Griffin Elite",
    "attributes": {
      "parent_system": "",
      "location_count": 1,
      "locations": [
        {
          "location": "Main",
          "address": "700 Dolwick Dr.Erlanger, KY 41018",
          "phone": "(859) 212-5600"
        }
      ]
    },
    "source_id": "facility_220",
    "source_file": ""
  },
  {
    "card_type": "entity",
    "entity_type": "MedicalProvider",
    "name": "Physical Therapy - Florence",
    "attributes": {
      "parent_system": "",
      "location_count": 1,
      "locations": [
        {
          "location": "Main",
          "address": "4900 Houston RoadFlorence, KY 41042",
          "phone": "(859) 212-5400"
        }
      ]
    },
    "source_id": "facility_221",
    "source_file": ""
  },
  {
    "card_type": "entity",
    "entity_type": "MedicalProvider",
    "name": "Physical Therapy - Ft. Thomas",
    "attributes": {
      "parent_system": "",
      "location_count": 1,
      "locations": [
        {
          "location": "Main",
          "address": "85 North Grand AvenueFt. Thomas, KY 41075",
          "phone": "(859) 572-3120"
        }
      ]
    },
    "source_id": "facility_222",
    "source_file": ""
  },
  {
    "card_type": "entity",
    "entity_type": "MedicalProvider",
    "name": "Physical Therapy - Grant",
    "attributes": {
      "parent_system": "",
      "location_count": 1,
      "locations": [
        {
          "location": "Main",
          "address": "300 Barnes RoadWilliamstown, KY 41097",
          "phone": "(859) 824-8217"
        }
      ]
    },
    "source_id": "facility_223",
    "source_file": ""
  },
  {
    "card_type": "entity",
    "entity_type": "MedicalProvider",
    "name": "Physical Therapy - Versailles",
    "attributes": {
      "parent_system": "",
      "location_count": 1,
      "locations": [
        {
          "location": "Main",
          "address": "476 West US 50Versailles, IN 47042",
          "phone": "(812) 496-8787"
        }
      ]
    },
    "source_id": "facility_224",
    "source_file": ""
  },
  {
    "card_type": "entity",
    "entity_type": "MedicalProvider",
    "name": "Physical Therapy - Vevay",
    "attributes": {
      "parent_system": "",
      "location_count": 1,
      "locations": [
        {
          "location": "Main",
          "address": "1035 W. Main StreetVevay, IN 47043",
          "phone": "(812) 496-8792"
        }
      ]
    },
    "source_id": "facility_225",
    "source_file": ""
  },
  {
    "card_type": "entity",
    "entity_type": "MedicalProvider",
    "name": "Physical Therapy - Wilder",
    "attributes": {
      "parent_system": "",
      "location_count": 1,
      "locations": [
        {
          "location": "Main",
          "address": "106 Crossing Dr.Wilder, KY 41076",
          "phone": "(859) 572-2360"
        }
      ]
    },
    "source_id": "facility_226",
    "source_file": ""
  },
  {
    "card_type": "entity",
    "entity_type": "MedicalProvider",
    "name": "Podiatry - Crestview Hills",
    "attributes": {
      "parent_system": "",
      "location_count": 1,
      "locations": [
        {
          "location": "Main",
          "address": "351 Centre View BoulevardCrestview Hills, KY 41017-3477",
          "phone": "(859) 212-0175"
        }
      ]
    },
    "source_id": "facility_227",
    "source_file": ""
  },
  {
    "card_type": "entity",
    "entity_type": "MedicalProvider",
    "name": "Podiatry - Florence Turfway",
    "attributes": {
      "parent_system": "",
      "location_count": 1,
      "locations": [
        {
          "location": "Main",
          "address": "7370 Turfway RoadFlorence, KY 41042-4896",
          "phone": "(859) 212-0175"
        }
      ]
    },
    "source_id": "facility_228",
    "source_file": ""
  },
  {
    "card_type": "entity",
    "entity_type": "MedicalProvider",
    "name": "Podiatry - Greendale",
    "attributes": {
      "parent_system": "",
      "location_count": 1,
      "locations": [
        {
          "location": "Main",
          "address": "1640 Flossie DriveGreendale, IN 47025-8424",
          "phone": "(859) 212-0175"
        }
      ]
    },
    "source_id": "facility_229",
    "source_file": ""
  },
  {
    "card_type": "entity",
    "entity_type": "MedicalProvider",
    "name": "Podiatry - Newport Ovation",
    "attributes": {
      "parent_system": "",
      "location_count": 1,
      "locations": [
        {
          "location": "Main",
          "address": "200 West 3rd StreetNewport, KY 41071-1814",
          "phone": "(859) 212-0175"
        }
      ]
    },
    "source_id": "facility_230",
    "source_file": ""
  },
  {
    "card_type": "entity",
    "entity_type": "MedicalProvider",
    "name": "Podiatry - Union Richwood",
    "attributes": {
      "parent_system": "",
      "location_count": 1,
      "locations": [
        {
          "location": "Main",
          "address": "605 Man O War BoulevardUnion, KY 41091-2007",
          "phone": "(859) 212-0175"
        }
      ]
    },
    "source_id": "facility_231",
    "source_file": ""
  },
  {
    "card_type": "entity",
    "entity_type": "MedicalProvider",
    "name": "Precision Medicine & Genomic Health",
    "attributes": {
      "parent_system": "",
      "location_count": 1,
      "locations": [
        {
          "location": "Main",
          "address": "1 Medical Village DriveEdgewood, KY 41017-3403",
          "phone": "(859) 301-4363"
        }
      ]
    },
    "source_id": "facility_232",
    "source_file": ""
  },
  {
    "card_type": "entity",
    "entity_type": "MedicalProvider",
    "name": "Primary Care - Alexandria",
    "attributes": {
      "parent_system": "",
      "location_count": 1,
      "locations": [
        {
          "location": "Main",
          "address": "300 Commercial CircleAlexandria, KY 41001-2107",
          "phone": "(859) 635-9440"
        }
      ]
    },
    "source_id": "facility_233",
    "source_file": ""
  },
  {
    "card_type": "entity",
    "entity_type": "MedicalProvider",
    "name": "Primary Care - Aurora Casket Links",
    "attributes": {
      "parent_system": "",
      "location_count": 1,
      "locations": [
        {
          "location": "Main",
          "address": "112 Links WayAurora, IN 47001-1403",
          "phone": "(812) 926-3133"
        }
      ]
    },
    "source_id": "facility_234",
    "source_file": ""
  },
  {
    "card_type": "entity",
    "entity_type": "MedicalProvider",
    "name": "Primary Care - Aurora Internal Medicine Links",
    "attributes": {
      "parent_system": "",
      "location_count": 1,
      "locations": [
        {
          "location": "Main",
          "address": "112 Links WayAurora, IN 47001-1403",
          "phone": "(812) 496-8785"
        }
      ]
    },
    "source_id": "facility_235",
    "source_file": ""
  },
  {
    "card_type": "entity",
    "entity_type": "MedicalProvider",
    "name": "Primary Care - Aurora Links",
    "attributes": {
      "parent_system": "",
      "location_count": 1,
      "locations": [
        {
          "location": "Main",
          "address": "112 Links WayAurora, IN 47001-1403",
          "phone": "(812) 926-3133"
        }
      ]
    },
    "source_id": "facility_236",
    "source_file": ""
  },
  {
    "card_type": "entity",
    "entity_type": "MedicalProvider",
    "name": "Primary Care - Bellevue",
    "attributes": {
      "parent_system": "",
      "location_count": 1,
      "locations": [
        {
          "location": "Main",
          "address": "119 Fairfield AvenueBellevue, KY 41073-1184",
          "phone": "(859) 431-0090"
        }
      ]
    },
    "source_id": "facility_237",
    "source_file": ""
  },
  {
    "card_type": "entity",
    "entity_type": "MedicalProvider",
    "name": "Primary Care - Bright Lawrenceburg",
    "attributes": {
      "parent_system": "",
      "location_count": 1,
      "locations": [
        {
          "location": "Main",
          "address": "2018 Jamison DriveLawrenceburg, IN 47025-8436",
          "phone": "(812) 496-8773"
        }
      ]
    },
    "source_id": "facility_238",
    "source_file": ""
  },
  {
    "card_type": "entity",
    "entity_type": "MedicalProvider",
    "name": "Primary Care - Bright Pediatrics Lawrenceburg",
    "attributes": {
      "parent_system": "",
      "location_count": 1,
      "locations": [
        {
          "location": "Main",
          "address": "2018 Jamison DriveLawrenceburg, IN 47025-8436",
          "phone": "(812) 496-8772"
        }
      ]
    },
    "source_id": "facility_239",
    "source_file": ""
  },
  {
    "card_type": "entity",
    "entity_type": "MedicalProvider",
    "name": "Primary Care - Burlington",
    "attributes": {
      "parent_system": "",
      "location_count": 1,
      "locations": [
        {
          "location": "Main",
          "address": "6105 1st Financial DriveBurlington, KY 41005-7892",
          "phone": "(859) 586-8200"
        }
      ]
    },
    "source_id": "facility_240",
    "source_file": ""
  },
  {
    "card_type": "entity",
    "entity_type": "MedicalProvider",
    "name": "Primary Care - Butler",
    "attributes": {
      "parent_system": "",
      "location_count": 1,
      "locations": [
        {
          "location": "Main",
          "address": "79 Country Club DriveButler, KY 41006-8704",
          "phone": "(859) 654-2283"
        }
      ]
    },
    "source_id": "facility_241",
    "source_file": ""
  },
  {
    "card_type": "entity",
    "entity_type": "MedicalProvider",
    "name": "Primary Care - Covington",
    "attributes": {
      "parent_system": "",
      "location_count": 1,
      "locations": [
        {
          "location": "Main",
          "address": "1500 James Simpson Jr WayCovington, KY 41011-0801",
          "phone": "(859) 655-4111"
        }
      ]
    },
    "source_id": "facility_242",
    "source_file": ""
  },
  {
    "card_type": "entity",
    "entity_type": "MedicalProvider",
    "name": "Primary Care - Covington Internal Medicine",
    "attributes": {
      "parent_system": "",
      "location_count": 1,
      "locations": [
        {
          "location": "Main",
          "address": "1500 James Simpson Jr WayCovington, KY 41011-0801",
          "phone": "(859) 655-8980"
        }
      ]
    },
    "source_id": "facility_243",
    "source_file": ""
  },
  {
    "card_type": "entity",
    "entity_type": "MedicalProvider",
    "name": "Primary Care - Crestview Hills Internal Medicine",
    "attributes": {
      "parent_system": "",
      "location_count": 1,
      "locations": [
        {
          "location": "Main",
          "address": "334 Thomas More ParkwayCrestview Hills, KY 41017-3464",
          "phone": "(859) 341-0288"
        }
      ]
    },
    "source_id": "facility_244",
    "source_file": ""
  },
  {
    "card_type": "entity",
    "entity_type": "MedicalProvider",
    "name": "Primary Care - Crestview Hills Internal Medicine/Pediatrics",
    "attributes": {
      "parent_system": "",
      "location_count": 1,
      "locations": [
        {
          "location": "Main",
          "address": "334 Thomas More ParkwayCrestview Hills, KY 41017-3464",
          "phone": "(859) 578-3400"
        }
      ]
    },
    "source_id": "facility_245",
    "source_file": ""
  },
  {
    "card_type": "entity",
    "entity_type": "MedicalProvider",
    "name": "Primary Care - Crestview Hills Pediatrics",
    "attributes": {
      "parent_system": "",
      "location_count": 1,
      "locations": [
        {
          "location": "Main",
          "address": "334 Thomas More ParkwayCrestview Hills, KY 41017-3464",
          "phone": "(859) 341-3383"
        }
      ]
    },
    "source_id": "facility_246",
    "source_file": ""
  },
  {
    "card_type": "entity",
    "entity_type": "MedicalProvider",
    "name": "Primary Care - Crittenden",
    "attributes": {
      "parent_system": "",
      "location_count": 1,
      "locations": [
        {
          "location": "Main",
          "address": "405 Violet RoadCrittenden, KY 41030-8956",
          "phone": "(859) 428-1610"
        }
      ]
    },
    "source_id": "facility_247",
    "source_file": ""
  },
  {
    "card_type": "entity",
    "entity_type": "MedicalProvider",
    "name": "Primary Care - Dillsboro Internal Medicine Links",
    "attributes": {
      "parent_system": "",
      "location_count": 1,
      "locations": [
        {
          "location": "Main",
          "address": "112 Links WayAurora, IN 47001-1403",
          "phone": "(812) 496-8783"
        }
      ]
    },
    "source_id": "facility_248",
    "source_file": ""
  },
  {
    "card_type": "entity",
    "entity_type": "MedicalProvider",
    "name": "Primary Care - Dry Ridge",
    "attributes": {
      "parent_system": "",
      "location_count": 1,
      "locations": [
        {
          "location": "Main",
          "address": "100 Blackburn LaneDry Ridge, KY 41035-8806",
          "phone": "(859) 823-5441"
        }
      ]
    },
    "source_id": "facility_249",
    "source_file": ""
  },
  {
    "card_type": "entity",
    "entity_type": "MedicalProvider",
    "name": "Primary Care - Edgewood",
    "attributes": {
      "parent_system": "",
      "location_count": 1,
      "locations": [
        {
          "location": "Main",
          "address": "830 Thomas More ParkwayEdgewood, KY 41017-5102",
          "phone": "(859) 301-8686"
        }
      ]
    },
    "source_id": "facility_250",
    "source_file": ""
  },
  {
    "card_type": "entity",
    "entity_type": "MedicalProvider",
    "name": "Primary Care - Edgewood 308 Internal Medicine/Pediatrics",
    "attributes": {
      "parent_system": "",
      "location_count": 1,
      "locations": [
        {
          "location": "Main",
          "address": "20 Medical Village DriveEdgewood, KY 41017-5403",
          "phone": "(859) 578-5651"
        }
      ]
    },
    "source_id": "facility_251",
    "source_file": ""
  },
  {
    "card_type": "entity",
    "entity_type": "MedicalProvider",
    "name": "Primary Care - Florence Ewing Boulevard",
    "attributes": {
      "parent_system": "",
      "location_count": 1,
      "locations": [
        {
          "location": "Main",
          "address": "7766 Ewing BoulevardFlorence, KY 41042-7537",
          "phone": "(859) 371-1153"
        }
      ]
    },
    "source_id": "facility_252",
    "source_file": ""
  },
  {
    "card_type": "entity",
    "entity_type": "MedicalProvider",
    "name": "Primary Care - Florence Turfway Pediatrics",
    "attributes": {
      "parent_system": "",
      "location_count": 1,
      "locations": [
        {
          "location": "Main",
          "address": "7300 Turfway RoadFlorence, KY 41042-1379",
          "phone": "(859) 212-5025"
        }
      ]
    },
    "source_id": "facility_253",
    "source_file": ""
  },
  {
    "card_type": "entity",
    "entity_type": "MedicalProvider",
    "name": "Primary Care - Ft. Mitchell",
    "attributes": {
      "parent_system": "",
      "location_count": 1,
      "locations": [
        {
          "location": "Main",
          "address": "2300 Chamber Center DriveFt. Mitchell, KY 41017-1686",
          "phone": "(859) 341-3114"
        }
      ]
    },
    "source_id": "facility_254",
    "source_file": ""
  },
  {
    "card_type": "entity",
    "entity_type": "MedicalProvider",
    "name": "Primary Care - Greendale",
    "attributes": {
      "parent_system": "",
      "location_count": 1,
      "locations": [
        {
          "location": "Main",
          "address": "1640 Flossie DriveGreendale, IN 47025-8424",
          "phone": "(877) 670-7264"
        }
      ]
    },
    "source_id": "facility_255",
    "source_file": ""
  },
  {
    "card_type": "entity",
    "entity_type": "MedicalProvider",
    "name": "Primary Care - Greendale Pediatrics",
    "attributes": {
      "parent_system": "",
      "location_count": 1,
      "locations": [
        {
          "location": "Main",
          "address": "1640 Flossie DriveGreendale, IN 47025-8424",
          "phone": "(877) 670-7264"
        }
      ]
    },
    "source_id": "facility_256",
    "source_file": ""
  },
  {
    "card_type": "entity",
    "entity_type": "MedicalProvider",
    "name": "Primary Care - Hebron Conner Road",
    "attributes": {
      "parent_system": "",
      "location_count": 1,
      "locations": [
        {
          "location": "Main",
          "address": "2200 Conner RoadHebron, KY 41048-8142",
          "phone": "(859) 442-6600"
        }
      ]
    },
    "source_id": "facility_257",
    "source_file": ""
  },
  {
    "card_type": "entity",
    "entity_type": "MedicalProvider",
    "name": "Primary Care - Hebron Litton Lane",
    "attributes": {
      "parent_system": "",
      "location_count": 1,
      "locations": [
        {
          "location": "Main",
          "address": "2000 Litton LaneHebron, KY 41048-8611",
          "phone": "(859) 334-8700"
        }
      ]
    },
    "source_id": "facility_258",
    "source_file": ""
  },
  {
    "card_type": "entity",
    "entity_type": "MedicalProvider",
    "name": "Primary Care - Highland Heights",
    "attributes": {
      "parent_system": "",
      "location_count": 1,
      "locations": [
        {
          "location": "Main",
          "address": "2626 Alexandria PikeHighland Heights, KY 41076-1530",
          "phone": "(859) 781-4111"
        }
      ]
    },
    "source_id": "facility_259",
    "source_file": ""
  },
  {
    "card_type": "entity",
    "entity_type": "MedicalProvider",
    "name": "Primary Care - Independence",
    "attributes": {
      "parent_system": "",
      "location_count": 1,
      "locations": [
        {
          "location": "Main",
          "address": "135 Courthouse CrossingIndependence, KY 41051-2509",
          "phone": "(859) 356-6800"
        }
      ]
    },
    "source_id": "facility_260",
    "source_file": ""
  },
  {
    "card_type": "entity",
    "entity_type": "MedicalProvider",
    "name": "Primary Care - Lawrenceburg Elm Street",
    "attributes": {
      "parent_system": "",
      "location_count": 1,
      "locations": [
        {
          "location": "Main",
          "address": "98 Elm StreetLawrenceburg, IN 47025-2048",
          "phone": "(812) 496-8775"
        }
      ]
    },
    "source_id": "facility_261",
    "source_file": ""
  },
  {
    "card_type": "entity",
    "entity_type": "MedicalProvider",
    "name": "Primary Care - Lawrenceburg Pediatrics",
    "attributes": {
      "parent_system": "",
      "location_count": 1,
      "locations": [
        {
          "location": "Main",
          "address": "98 Elm StreetLawrenceburg, IN 47025-2048",
          "phone": "(812) 496-8777"
        }
      ]
    },
    "source_id": "facility_262",
    "source_file": ""
  },
  {
    "card_type": "entity",
    "entity_type": "MedicalProvider",
    "name": "Primary Care - Lawrenceburg State Line",
    "attributes": {
      "parent_system": "",
      "location_count": 1,
      "locations": [
        {
          "location": "Main",
          "address": "19849 State Line RoadLawrenceburg, IN 47025-7791",
          "phone": "(812) 496-8774"
        }
      ]
    },
    "source_id": "facility_263",
    "source_file": ""
  },
  {
    "card_type": "entity",
    "entity_type": "MedicalProvider",
    "name": "Primary Care - Milan",
    "attributes": {
      "parent_system": "",
      "location_count": 1,
      "locations": [
        {
          "location": "Main",
          "address": "124 West Indian TrailMilan, IN 47031-8992",
          "phone": "(812) 496-8784"
        }
      ]
    },
    "source_id": "facility_264",
    "source_file": ""
  },
  {
    "card_type": "entity",
    "entity_type": "MedicalProvider",
    "name": "Primary Care - Newport Ovation",
    "attributes": {
      "parent_system": "",
      "location_count": 1,
      "locations": [
        {
          "location": "Main",
          "address": "200 West 3rd StreetNewport, KY 41071-1814",
          "phone": "(859) 578-5662"
        }
      ]
    },
    "source_id": "facility_265",
    "source_file": ""
  },
  {
    "card_type": "entity",
    "entity_type": "MedicalProvider",
    "name": "Primary Care - Newport/Ft. Thomas",
    "attributes": {
      "parent_system": "",
      "location_count": 1,
      "locations": [
        {
          "location": "Main",
          "address": "1400 Grand AvenueNewport, KY 41071-2570",
          "phone": "(859) 912-7193"
        }
      ]
    },
    "source_id": "facility_266",
    "source_file": ""
  },
  {
    "card_type": "entity",
    "entity_type": "MedicalProvider",
    "name": "Primary Care - Rising Sun",
    "attributes": {
      "parent_system": "",
      "location_count": 1,
      "locations": [
        {
          "location": "Main",
          "address": "230 6th StreetRising Sun, IN 47040-1114",
          "phone": "(812) 496-8793"
        }
      ]
    },
    "source_id": "facility_267",
    "source_file": ""
  },
  {
    "card_type": "entity",
    "entity_type": "MedicalProvider",
    "name": "Primary Care - Southgate Internal Medicine",
    "attributes": {
      "parent_system": "",
      "location_count": 1,
      "locations": [
        {
          "location": "Main",
          "address": "525 Alexandria PikeSouthgate, KY 41071-3290",
          "phone": "(859) 781-2210"
        }
      ]
    },
    "source_id": "facility_268",
    "source_file": ""
  },
  {
    "card_type": "entity",
    "entity_type": "MedicalProvider",
    "name": "Primary Care - Taylor Mill",
    "attributes": {
      "parent_system": "",
      "location_count": 1,
      "locations": [
        {
          "location": "Main",
          "address": "5100 Peace WayTaylor Mill, KY 41015-3506",
          "phone": "(859) 491-2855"
        }
      ]
    },
    "source_id": "facility_269",
    "source_file": ""
  },
  {
    "card_type": "entity",
    "entity_type": "MedicalProvider",
    "name": "Primary Care - Turfway",
    "attributes": {
      "parent_system": "",
      "location_count": 1,
      "locations": [
        {
          "location": "Main",
          "address": "7300 Turfway RoadFlorence, KY 41042-1375",
          "phone": "(859) 212-4700"
        }
      ]
    },
    "source_id": "facility_270",
    "source_file": ""
  },
  {
    "card_type": "entity",
    "entity_type": "MedicalProvider",
    "name": "Primary Care - Union Bristow Drive",
    "attributes": {
      "parent_system": "",
      "location_count": 1,
      "locations": [
        {
          "location": "Main",
          "address": "1808 Bristow DriveUnion, KY 41091-3513",
          "phone": "(859) 301-7210"
        }
      ]
    },
    "source_id": "facility_271",
    "source_file": ""
  },
  {
    "card_type": "entity",
    "entity_type": "MedicalProvider",
    "name": "Primary Care - Union Richwood",
    "attributes": {
      "parent_system": "",
      "location_count": 1,
      "locations": [
        {
          "location": "Main",
          "address": "605 Man O War BoulevardUnion, KY 41091-2007",
          "phone": "(859) 578-5333"
        }
      ]
    },
    "source_id": "facility_272",
    "source_file": ""
  },
  {
    "card_type": "entity",
    "entity_type": "MedicalProvider",
    "name": "Primary Care - Union US Highway 42",
    "attributes": {
      "parent_system": "",
      "location_count": 1,
      "locations": [
        {
          "location": "Main",
          "address": "8726 US Highway 42Florence, KY 41042-8550",
          "phone": "(859) 384-2660"
        }
      ]
    },
    "source_id": "facility_273",
    "source_file": ""
  },
  {
    "card_type": "entity",
    "entity_type": "MedicalProvider",
    "name": "Primary Care - Vevay",
    "attributes": {
      "parent_system": "",
      "location_count": 1,
      "locations": [
        {
          "location": "Main",
          "address": "1035 West Main StreetVevay, IN 47043-9126",
          "phone": "(812) 496-8786"
        }
      ]
    },
    "source_id": "facility_274",
    "source_file": ""
  },
  {
    "card_type": "entity",
    "entity_type": "MedicalProvider",
    "name": "Primary Care - Walton",
    "attributes": {
      "parent_system": "",
      "location_count": 1,
      "locations": [
        {
          "location": "Main",
          "address": "13260 Service RoadWalton, KY 41094-9565",
          "phone": "(859) 485-4116"
        }
      ]
    },
    "source_id": "facility_275",
    "source_file": ""
  },
  {
    "card_type": "entity",
    "entity_type": "MedicalProvider",
    "name": "Primary Care - Williamstown",
    "attributes": {
      "parent_system": "",
      "location_count": 1,
      "locations": [
        {
          "location": "Main",
          "address": "300 Barnes RoadWilliamstown, KY 41097-9483",
          "phone": "(859) 824-8400"
        }
      ]
    },
    "source_id": "facility_276",
    "source_file": ""
  },
  {
    "card_type": "entity",
    "entity_type": "MedicalProvider",
    "name": "PrimeWise - Edgewood",
    "attributes": {
      "parent_system": "",
      "location_count": 1,
      "locations": [
        {
          "location": "Main",
          "address": "1 Medical Village DriveEdgewood, KY 41017",
          "phone": "(859) 301-5999"
        }
      ]
    },
    "source_id": "facility_277",
    "source_file": ""
  },
  {
    "card_type": "entity",
    "entity_type": "MedicalProvider",
    "name": "PrimeWise - Florence",
    "attributes": {
      "parent_system": "",
      "location_count": 1,
      "locations": [
        {
          "location": "Main",
          "address": "4900 Houston Rd.Florence, KY 41042",
          "phone": ""
        }
      ]
    },
    "source_id": "facility_278",
    "source_file": ""
  },
  {
    "card_type": "entity",
    "entity_type": "MedicalProvider",
    "name": "PrimeWise - Ft. Thomas",
    "attributes": {
      "parent_system": "",
      "location_count": 1,
      "locations": [
        {
          "location": "Main",
          "address": "85 N. Grand AvenueFt. Thomas, KY 41075",
          "phone": "(859) 301-5999"
        }
      ]
    },
    "source_id": "facility_279",
    "source_file": ""
  },
  {
    "card_type": "entity",
    "entity_type": "MedicalProvider",
    "name": "Pulmonary Hypertension - Crestview Hills",
    "attributes": {
      "parent_system": "",
      "location_count": 1,
      "locations": [
        {
          "location": "Main",
          "address": "651 Centre View BoulevardCrestview Hills, KY 41017-5423",
          "phone": "(859) 757-2927"
        }
      ]
    },
    "source_id": "facility_280",
    "source_file": ""
  },
  {
    "card_type": "entity",
    "entity_type": "MedicalProvider",
    "name": "Pulmonary Rehabilitation & Asthma Education Center",
    "attributes": {
      "parent_system": "",
      "location_count": 1,
      "locations": [
        {
          "location": "Main",
          "address": "1 Medical Village DriveEdgewood, KY 41017",
          "phone": "(859) 301-5750"
        }
      ]
    },
    "source_id": "facility_281",
    "source_file": ""
  },
  {
    "card_type": "entity",
    "entity_type": "MedicalProvider",
    "name": "Pulmonology - Crestview Hills",
    "attributes": {
      "parent_system": "",
      "location_count": 1,
      "locations": [
        {
          "location": "Main",
          "address": "651 Centre View BoulevardCrestview Hills, KY 41017-5423",
          "phone": "(859) 757-2927"
        }
      ]
    },
    "source_id": "facility_282",
    "source_file": ""
  },
  {
    "card_type": "entity",
    "entity_type": "MedicalProvider",
    "name": "Pulmonology - Dearborn",
    "attributes": {
      "parent_system": "",
      "location_count": 1,
      "locations": [
        {
          "location": "Main",
          "address": "600 Wilson Creek RoadLawrenceburg, IN 47025-2751",
          "phone": "(812) 496-8779"
        }
      ]
    },
    "source_id": "facility_283",
    "source_file": ""
  },
  {
    "card_type": "entity",
    "entity_type": "MedicalProvider",
    "name": "Pulmonology - Florence",
    "attributes": {
      "parent_system": "",
      "location_count": 1,
      "locations": [
        {
          "location": "Main",
          "address": "4900 Houston RoadFlorence, KY 41042-4824",
          "phone": "(859) 212-7700"
        }
      ]
    },
    "source_id": "facility_284",
    "source_file": ""
  },
  {
    "card_type": "entity",
    "entity_type": "MedicalProvider",
    "name": "Pulmonology - Florence Turfway",
    "attributes": {
      "parent_system": "",
      "location_count": 1,
      "locations": [
        {
          "location": "Main",
          "address": "7370 Turfway RoadFlorence, KY 41042-4896",
          "phone": "(859) 212-7700"
        }
      ]
    },
    "source_id": "facility_285",
    "source_file": ""
  },
  {
    "card_type": "entity",
    "entity_type": "MedicalProvider",
    "name": "Pulmonology - Ft. Thomas",
    "attributes": {
      "parent_system": "",
      "location_count": 1,
      "locations": [
        {
          "location": "Main",
          "address": "85 North Grand AvenueFt. Thomas, KY 41075-1793",
          "phone": "(859) 212-7700"
        }
      ]
    },
    "source_id": "facility_286",
    "source_file": ""
  },
  {
    "card_type": "entity",
    "entity_type": "MedicalProvider",
    "name": "Pulmonology - Grant County",
    "attributes": {
      "parent_system": "",
      "location_count": 1,
      "locations": [
        {
          "location": "Main",
          "address": "238 Barnes RoadWilliamstown, KY 41097-9482",
          "phone": "(859) 757-2927"
        }
      ]
    },
    "source_id": "facility_287",
    "source_file": ""
  },
  {
    "card_type": "entity",
    "entity_type": "MedicalProvider",
    "name": "Pulmonology - Lawrenceburg",
    "attributes": {
      "parent_system": "",
      "location_count": 1,
      "locations": [
        {
          "location": "Main",
          "address": "606 Wilson Creek RoadLawrenceburg, IN 47025-1095",
          "phone": "(812) 496-8779"
        }
      ]
    },
    "source_id": "facility_288",
    "source_file": ""
  },
  {
    "card_type": "entity",
    "entity_type": "MedicalProvider",
    "name": "Pulmonology - Newport/Ft. Thomas",
    "attributes": {
      "parent_system": "",
      "location_count": 1,
      "locations": [
        {
          "location": "Main",
          "address": "1400 Grand AvenueNewport, KY 41071-2570",
          "phone": "(859) 212-7700"
        }
      ]
    },
    "source_id": "facility_289",
    "source_file": ""
  },
  {
    "card_type": "entity",
    "entity_type": "MedicalProvider",
    "name": "Pulmonology - Williamstown",
    "attributes": {
      "parent_system": "",
      "location_count": 1,
      "locations": [
        {
          "location": "Main",
          "address": "300 Barnes RoadWilliamstown, KY 41097-9483",
          "phone": "(859) 757-2927"
        }
      ]
    },
    "source_id": "facility_290",
    "source_file": ""
  },
  {
    "card_type": "entity",
    "entity_type": "MedicalProvider",
    "name": "Pulmonology/Critical Care - Edgewood",
    "attributes": {
      "parent_system": "",
      "location_count": 1,
      "locations": [
        {
          "location": "Main",
          "address": "1 Medical Village DriveEdgewood, KY 41017-3403",
          "phone": "(859) 757-2927"
        }
      ]
    },
    "source_id": "facility_291",
    "source_file": ""
  },
  {
    "card_type": "entity",
    "entity_type": "MedicalProvider",
    "name": "Quality of Care - Edgewood",
    "attributes": {
      "parent_system": "",
      "location_count": 1,
      "locations": [
        {
          "location": "Main",
          "address": "1 Medical Village DriveEdgewood, KY 41017",
          "phone": "(859) 301-2000"
        }
      ]
    },
    "source_id": "facility_292",
    "source_file": ""
  },
  {
    "card_type": "entity",
    "entity_type": "MedicalProvider",
    "name": "Radiation Oncology - Dearborn Cancer Center",
    "attributes": {
      "parent_system": "",
      "location_count": 1,
      "locations": [
        {
          "location": "Main",
          "address": "17525 Greendale Plaza DriveGreendale, IN 47025-8299",
          "phone": "(859) 301-2238"
        }
      ]
    },
    "source_id": "facility_293",
    "source_file": ""
  },
  {
    "card_type": "entity",
    "entity_type": "MedicalProvider",
    "name": "Radiation Oncology - Edgewood Cancer Center",
    "attributes": {
      "parent_system": "",
      "location_count": 1,
      "locations": [
        {
          "location": "Main",
          "address": "1 Medical Village DriveEdgewood, KY 41017-3403",
          "phone": "(859) 301-2238"
        }
      ]
    },
    "source_id": "facility_294",
    "source_file": ""
  },
  {
    "card_type": "entity",
    "entity_type": "MedicalProvider",
    "name": "Radiation Oncology- Ft. Thomas",
    "attributes": {
      "parent_system": "",
      "location_count": 1,
      "locations": [
        {
          "location": "Main",
          "address": "85 North Grand AvenueFt. Thomas, KY 41075-1793",
          "phone": "(859) 572-3298"
        }
      ]
    },
    "source_id": "facility_295",
    "source_file": ""
  },
  {
    "card_type": "entity",
    "entity_type": "MedicalProvider",
    "name": "Regional Diabetes Center - Covington",
    "attributes": {
      "parent_system": "",
      "location_count": 1,
      "locations": [
        {
          "location": "Main",
          "address": "1500 James Simpson Jr WayCovington, KY 41011-0801",
          "phone": "(859) 655-8910"
        }
      ]
    },
    "source_id": "facility_296",
    "source_file": ""
  },
  {
    "card_type": "entity",
    "entity_type": "MedicalProvider",
    "name": "Regional Diabetes Center - Crittenden",
    "attributes": {
      "parent_system": "",
      "location_count": 1,
      "locations": [
        {
          "location": "Main",
          "address": "405 Violet RoadCrittenden, KY 41030-8956",
          "phone": "(859) 655-8910"
        }
      ]
    },
    "source_id": "facility_297",
    "source_file": ""
  },
  {
    "card_type": "entity",
    "entity_type": "MedicalProvider",
    "name": "Regional Diabetes Center - Florence 7388 Turfway",
    "attributes": {
      "parent_system": "",
      "location_count": 1,
      "locations": [
        {
          "location": "Main",
          "address": "7388 Turfway RoadFlorence, KY 41042-1381",
          "phone": "(859) 655-8910"
        }
      ]
    },
    "source_id": "facility_298",
    "source_file": ""
  },
  {
    "card_type": "entity",
    "entity_type": "MedicalProvider",
    "name": "Regional Diabetes Center - Greendale",
    "attributes": {
      "parent_system": "",
      "location_count": 1,
      "locations": [
        {
          "location": "Main",
          "address": "1640 Flossie DriveGreendale, IN 47025-8424",
          "phone": "(859) 655-8910"
        }
      ]
    },
    "source_id": "facility_299",
    "source_file": ""
  },
  {
    "card_type": "entity",
    "entity_type": "MedicalProvider",
    "name": "Regional Diabetes Center - Williamstown",
    "attributes": {
      "parent_system": "",
      "location_count": 1,
      "locations": [
        {
          "location": "Main",
          "address": "300 Barnes RoadWilliamstown, KY 41097-9483",
          "phone": "(859) 655-8910"
        }
      ]
    },
    "source_id": "facility_300",
    "source_file": ""
  },
  {
    "card_type": "entity",
    "entity_type": "MedicalProvider",
    "name": "Respiratory Care - Covington",
    "attributes": {
      "parent_system": "",
      "location_count": 1,
      "locations": [
        {
          "location": "Main",
          "address": "1500 James Simpson, Jr. WayCovington, KY 41011",
          "phone": "(859) 655-8800"
        }
      ]
    },
    "source_id": "facility_301",
    "source_file": ""
  },
  {
    "card_type": "entity",
    "entity_type": "MedicalProvider",
    "name": "Respiratory Care - Edgewood",
    "attributes": {
      "parent_system": "",
      "location_count": 1,
      "locations": [
        {
          "location": "Main",
          "address": "1 Medical Village DriveEdgewood, KY 41017",
          "phone": "(859) 301-2178"
        }
      ]
    },
    "source_id": "facility_302",
    "source_file": ""
  },
  {
    "card_type": "entity",
    "entity_type": "MedicalProvider",
    "name": "Respiratory Care - Florence",
    "attributes": {
      "parent_system": "",
      "location_count": 1,
      "locations": [
        {
          "location": "Main",
          "address": "4900 Houston RoadFlorence, KY 41042",
          "phone": "(859) 212-5470"
        }
      ]
    },
    "source_id": "facility_303",
    "source_file": ""
  },
  {
    "card_type": "entity",
    "entity_type": "MedicalProvider",
    "name": "Respiratory Care - Ft. Thomas",
    "attributes": {
      "parent_system": "",
      "location_count": 1,
      "locations": [
        {
          "location": "Main",
          "address": "85 N. Grand AvenueFt. Thomas, KY 41075",
          "phone": "(859) 572-3118"
        }
      ]
    },
    "source_id": "facility_304",
    "source_file": ""
  },
  {
    "card_type": "entity",
    "entity_type": "MedicalProvider",
    "name": "Respiratory Care - Grant",
    "attributes": {
      "parent_system": "",
      "location_count": 1,
      "locations": [
        {
          "location": "Main",
          "address": "238 Barnes RoadWilliamstown, KY 41097",
          "phone": "(859) 824-8207"
        }
      ]
    },
    "source_id": "facility_305",
    "source_file": ""
  },
  {
    "card_type": "entity",
    "entity_type": "MedicalProvider",
    "name": "Rheumatology & Neurology EDG Florence",
    "attributes": {
      "parent_system": "",
      "location_count": 1,
      "locations": [
        {
          "location": "Main",
          "address": "7370 Turfway RoadFlorence, KY 41042 - 4896",
          "phone": "(859) 344-1900"
        }
      ]
    },
    "source_id": "facility_306",
    "source_file": ""
  },
  {
    "card_type": "entity",
    "entity_type": "MedicalProvider",
    "name": "Rheumatology - Crestview Hills Suite 201",
    "attributes": {
      "parent_system": "",
      "location_count": 1,
      "locations": [
        {
          "location": "Main",
          "address": "651 Centre View BoulevardCrestview Hills, KY 41017-5423",
          "phone": "(859) 344-1900"
        }
      ]
    },
    "source_id": "facility_307",
    "source_file": ""
  },
  {
    "card_type": "entity",
    "entity_type": "MedicalProvider",
    "name": "Rheumatology - Greendale",
    "attributes": {
      "parent_system": "",
      "location_count": 1,
      "locations": [
        {
          "location": "Main",
          "address": "1640 Flossie DriveGreendale, IN 47025-8424",
          "phone": "(859) 344-1900"
        }
      ]
    },
    "source_id": "facility_308",
    "source_file": ""
  },
  {
    "card_type": "entity",
    "entity_type": "MedicalProvider",
    "name": "Rheumatology - Newport/Ft. Thomas",
    "attributes": {
      "parent_system": "",
      "location_count": 1,
      "locations": [
        {
          "location": "Main",
          "address": "1400 Grand AvenueNewport, KY 41071-2570",
          "phone": "(859) 344-1900"
        }
      ]
    },
    "source_id": "facility_309",
    "source_file": ""
  },
  {
    "card_type": "entity",
    "entity_type": "MedicalProvider",
    "name": "Rheumatology - Williamstown",
    "attributes": {
      "parent_system": "",
      "location_count": 1,
      "locations": [
        {
          "location": "Main",
          "address": "300 Barnes RoadWilliamstown, KY 41097-9483",
          "phone": "(859) 344-1900"
        }
      ]
    },
    "source_id": "facility_310",
    "source_file": ""
  },
  {
    "card_type": "entity",
    "entity_type": "MedicalProvider",
    "name": "SEH Medical Affairs Office",
    "attributes": {
      "parent_system": "",
      "location_count": 1,
      "locations": [
        {
          "location": "Main",
          "address": "1 Medical Village DriveEdgewood, KY 41017-3403",
          "phone": "(859) 301-2115"
        }
      ]
    },
    "source_id": "facility_311",
    "source_file": ""
  },
  {
    "card_type": "entity",
    "entity_type": "MedicalProvider",
    "name": "Same Day Surgery - Crestview Hills",
    "attributes": {
      "parent_system": "",
      "location_count": 1,
      "locations": [
        {
          "location": "Main",
          "address": "2845 Chancellor DriveCrestview Hills, KY 41017-3418",
          "phone": "(859) 301-6748"
        }
      ]
    },
    "source_id": "facility_312",
    "source_file": ""
  },
  {
    "card_type": "entity",
    "entity_type": "MedicalProvider",
    "name": "Same Day Surgery - Edgewood",
    "attributes": {
      "parent_system": "",
      "location_count": 1,
      "locations": [
        {
          "location": "Main",
          "address": "1 Medical Village DriveEdgewood, KY 41017-3403",
          "phone": "(859) 301-5650"
        }
      ]
    },
    "source_id": "facility_313",
    "source_file": ""
  },
  {
    "card_type": "entity",
    "entity_type": "MedicalProvider",
    "name": "Same Day Surgery - Edgewood South Loop",
    "attributes": {
      "parent_system": "",
      "location_count": 1,
      "locations": [
        {
          "location": "Main",
          "address": "580 South Loop RoadEdgewood, KY 41017-3415",
          "phone": "(859) 301-6099"
        }
      ]
    },
    "source_id": "facility_314",
    "source_file": ""
  },
  {
    "card_type": "entity",
    "entity_type": "MedicalProvider",
    "name": "Same Day Surgery - Florence",
    "attributes": {
      "parent_system": "",
      "location_count": 1,
      "locations": [
        {
          "location": "Main",
          "address": "4900 Houston RoadFlorence, KY 41042-4824",
          "phone": "(859) 212-5478"
        }
      ]
    },
    "source_id": "facility_315",
    "source_file": ""
  },
  {
    "card_type": "entity",
    "entity_type": "MedicalProvider",
    "name": "Same Day Surgery - Ft. Thomas",
    "attributes": {
      "parent_system": "",
      "location_count": 1,
      "locations": [
        {
          "location": "Main",
          "address": "85 North Grand AvenueFt. Thomas, KY 41075-1793",
          "phone": "(859) 572-3366"
        }
      ]
    },
    "source_id": "facility_316",
    "source_file": ""
  },
  {
    "card_type": "entity",
    "entity_type": "MedicalProvider",
    "name": "Sleep Medicine - Crestview Hills",
    "attributes": {
      "parent_system": "",
      "location_count": 1,
      "locations": [
        {
          "location": "Main",
          "address": "651 Centre View BoulevardCrestview Hills, KY 41017-5423",
          "phone": "(859) 301-9140"
        }
      ]
    },
    "source_id": "facility_317",
    "source_file": ""
  },
  {
    "card_type": "entity",
    "entity_type": "MedicalProvider",
    "name": "Sleep Medicine - Grant",
    "attributes": {
      "parent_system": "",
      "location_count": 1,
      "locations": [
        {
          "location": "Main",
          "address": "238 Barnes RoadWilliamstown, KY 41097-9482",
          "phone": "(859) 301-9140"
        }
      ]
    },
    "source_id": "facility_318",
    "source_file": ""
  },
  {
    "card_type": "entity",
    "entity_type": "MedicalProvider",
    "name": "Sleep Medicine - Lawrenceburg",
    "attributes": {
      "parent_system": "",
      "location_count": 1,
      "locations": [
        {
          "location": "Main",
          "address": "606 Wilson Creek RoadLawrenceburg, IN 47025-1095",
          "phone": "(812) 496-8779"
        }
      ]
    },
    "source_id": "facility_319",
    "source_file": ""
  },
  {
    "card_type": "entity",
    "entity_type": "MedicalProvider",
    "name": "Sleep Medicine - Newport/Ft. Thomas",
    "attributes": {
      "parent_system": "",
      "location_count": 1,
      "locations": [
        {
          "location": "Main",
          "address": "1400 Grand AvenueNewport, KY 41071-2570",
          "phone": "(859) 301-9140"
        }
      ]
    },
    "source_id": "facility_320",
    "source_file": ""
  },
  {
    "card_type": "entity",
    "entity_type": "MedicalProvider",
    "name": "Speech Pathology - Dearborn",
    "attributes": {
      "parent_system": "",
      "location_count": 1,
      "locations": [
        {
          "location": "Main",
          "address": "600 Wilson Creek RoadLawrenceburg, IN 47025",
          "phone": "(812) 496-8790"
        }
      ]
    },
    "source_id": "facility_321",
    "source_file": ""
  },
  {
    "card_type": "entity",
    "entity_type": "MedicalProvider",
    "name": "Speech Pathology - Edgewood",
    "attributes": {
      "parent_system": "",
      "location_count": 1,
      "locations": [
        {
          "location": "Main",
          "address": "20 Medical Village Dr., Suite 354Edgewood, KY 41017",
          "phone": "(859) 301-5740"
        }
      ]
    },
    "source_id": "facility_322",
    "source_file": ""
  },
  {
    "card_type": "entity",
    "entity_type": "MedicalProvider",
    "name": "Speech Pathology - Florence",
    "attributes": {
      "parent_system": "",
      "location_count": 1,
      "locations": [
        {
          "location": "Main",
          "address": "4900 Houston RoadFlorence, KY 41042",
          "phone": "(859) 212-5400"
        }
      ]
    },
    "source_id": "facility_323",
    "source_file": ""
  },
  {
    "card_type": "entity",
    "entity_type": "MedicalProvider",
    "name": "Speech Pathology - Ft. Thomas",
    "attributes": {
      "parent_system": "",
      "location_count": 1,
      "locations": [
        {
          "location": "Main",
          "address": "85 North Grand AvenueFt. Thomas, KY 41075",
          "phone": "(859) 572-3120"
        }
      ]
    },
    "source_id": "facility_324",
    "source_file": ""
  },
  {
    "card_type": "entity",
    "entity_type": "MedicalProvider",
    "name": "Spine Center - Florence",
    "attributes": {
      "parent_system": "",
      "location_count": 1,
      "locations": [
        {
          "location": "Main",
          "address": "4900 Houston RoadFlorence, KY 41042-4824",
          "phone": "(859) 212-7000"
        }
      ]
    },
    "source_id": "facility_325",
    "source_file": ""
  },
  {
    "card_type": "entity",
    "entity_type": "MedicalProvider",
    "name": "Spine Center - Greendale",
    "attributes": {
      "parent_system": "",
      "location_count": 1,
      "locations": [
        {
          "location": "Main",
          "address": "1640 Flossie DriveGreendale, IN 47025-8424",
          "phone": "(859) 212-7000"
        }
      ]
    },
    "source_id": "facility_326",
    "source_file": ""
  },
  {
    "card_type": "entity",
    "entity_type": "MedicalProvider",
    "name": "Spine Center - Highland Heights",
    "attributes": {
      "parent_system": "",
      "location_count": 1,
      "locations": [
        {
          "location": "Main",
          "address": "2626 Alexandria PikeHighland Heights, KY 41076-1530",
          "phone": "(859) 212-7000"
        }
      ]
    },
    "source_id": "facility_327",
    "source_file": ""
  },
  {
    "card_type": "entity",
    "entity_type": "MedicalProvider",
    "name": "Sports Medicine - Bright",
    "attributes": {
      "parent_system": "",
      "location_count": 1,
      "locations": [
        {
          "location": "Main",
          "address": "1940 Jamison DriveLawrenceburg, IN 47025",
          "phone": "(812) 496-8791"
        }
      ]
    },
    "source_id": "facility_328",
    "source_file": ""
  },
  {
    "card_type": "entity",
    "entity_type": "MedicalProvider",
    "name": "Sports Medicine - Dearborn",
    "attributes": {
      "parent_system": "",
      "location_count": 1,
      "locations": [
        {
          "location": "Main",
          "address": "600 Wilson Creek RoadLawrenceburg, IN 47025",
          "phone": "(812) 496-8790"
        }
      ]
    },
    "source_id": "facility_329",
    "source_file": ""
  },
  {
    "card_type": "entity",
    "entity_type": "MedicalProvider",
    "name": "Sports Medicine - Wilder Town & Country Sports",
    "attributes": {
      "parent_system": "",
      "location_count": 1,
      "locations": [
        {
          "location": "Main",
          "address": "106 Crossing Dr.Wilder, KY 41076",
          "phone": "(859) 572-2360"
        }
      ]
    },
    "source_id": "facility_330",
    "source_file": ""
  },
  {
    "card_type": "entity",
    "entity_type": "MedicalProvider",
    "name": "Sports Medicine- Griffin",
    "attributes": {
      "parent_system": "",
      "location_count": 1,
      "locations": [
        {
          "location": "Main",
          "address": "700 Dolwick DriveErlanger, KY 41018-3231",
          "phone": "(859) 212-5600"
        }
      ]
    },
    "source_id": "facility_331",
    "source_file": ""
  },
  {
    "card_type": "entity",
    "entity_type": "MedicalProvider",
    "name": "Sports Medicine- Mt. Zion",
    "attributes": {
      "parent_system": "",
      "location_count": 1,
      "locations": [
        {
          "location": "Main",
          "address": "10095 Investment WayFlorence, KY 41042-4798",
          "phone": "(859) 301-9070"
        }
      ]
    },
    "source_id": "facility_332",
    "source_file": ""
  },
  {
    "card_type": "entity",
    "entity_type": "MedicalProvider",
    "name": "St. Elizabeth Healthcare  --  Dolwick",
    "attributes": {
      "parent_system": "",
      "location_count": 1,
      "locations": [
        {
          "location": "Main",
          "address": "1360 Dolwick Dr.Erlanger, KY 41018",
          "phone": "(859) 301-2000"
        }
      ]
    },
    "source_id": "facility_333",
    "source_file": ""
  },
  {
    "card_type": "entity",
    "entity_type": "MedicalProvider",
    "name": "St. Elizabeth Healthcare - EMG/NCV - Crestview Hills",
    "attributes": {
      "parent_system": "",
      "location_count": 1,
      "locations": [
        {
          "location": "Main",
          "address": "2670 Chancellor Dr.Crestview Hills, KY 41017",
          "phone": "(859) 212-0009"
        }
      ]
    },
    "source_id": "facility_334",
    "source_file": ""
  },
  {
    "card_type": "entity",
    "entity_type": "MedicalProvider",
    "name": "St. Elizabeth Healthcare - EMG/NCV - Florence",
    "attributes": {
      "parent_system": "",
      "location_count": 1,
      "locations": [
        {
          "location": "Main",
          "address": "4900 Houston Rd.Florence, KY 41042",
          "phone": "(859) 212-5400"
        }
      ]
    },
    "source_id": "facility_335",
    "source_file": ""
  },
  {
    "card_type": "entity",
    "entity_type": "MedicalProvider",
    "name": "St. Elizabeth Healthcare - EMG/NCV - Newport",
    "attributes": {
      "parent_system": "",
      "location_count": 1,
      "locations": [
        {
          "location": "Main",
          "address": "1400 N Grand AveNewport, KY 41071",
          "phone": "(859) 578-5369"
        }
      ]
    },
    "source_id": "facility_336",
    "source_file": ""
  },
  {
    "card_type": "entity",
    "entity_type": "MedicalProvider",
    "name": "St. Elizabeth Healthcare Business Health Mineola Clinic",
    "attributes": {
      "parent_system": "",
      "location_count": 1,
      "locations": [
        {
          "location": "Main",
          "address": "4123 Olympic Boulevard Suite 151Erlanger, KY 41018-3508",
          "phone": "(859) 301-2999"
        }
      ]
    },
    "source_id": "facility_337",
    "source_file": ""
  },
  {
    "card_type": "entity",
    "entity_type": "MedicalProvider",
    "name": "St. Elizabeth Healthcare Covington Hospital",
    "attributes": {
      "parent_system": "",
      "location_count": 1,
      "locations": [
        {
          "location": "Main",
          "address": "1500 James Simpson Jr. WayCovington, KY 41011",
          "phone": "(859) 655-8800"
        }
      ]
    },
    "source_id": "facility_338",
    "source_file": ""
  },
  {
    "card_type": "entity",
    "entity_type": "MedicalProvider",
    "name": "St. Elizabeth Healthcare Dearborn Hospital",
    "attributes": {
      "parent_system": "",
      "location_count": 1,
      "locations": [
        {
          "location": "Main",
          "address": "600 Wilson Creek Rd.Lawrenceburg, IN 47025",
          "phone": "(812) 496-7000"
        }
      ]
    },
    "source_id": "facility_339",
    "source_file": ""
  },
  {
    "card_type": "entity",
    "entity_type": "MedicalProvider",
    "name": "St. Elizabeth Healthcare Edgewood - Pastoral Care Department",
    "attributes": {
      "parent_system": "",
      "location_count": 1,
      "locations": [
        {
          "location": "Main",
          "address": "1 Medical Village DriveEdgewood, KY 41017",
          "phone": "(859) 301-2190"
        }
      ]
    },
    "source_id": "facility_340",
    "source_file": ""
  },
  {
    "card_type": "entity",
    "entity_type": "MedicalProvider",
    "name": "St. Elizabeth Healthcare Edgewood Hospital",
    "attributes": {
      "parent_system": "",
      "location_count": 1,
      "locations": [
        {
          "location": "Main",
          "address": "1 Medical Village Dr.Edgewood, KY 41017",
          "phone": "(859) 301-2000"
        }
      ]
    },
    "source_id": "facility_341",
    "source_file": ""
  },
  {
    "card_type": "entity",
    "entity_type": "MedicalProvider",
    "name": "St. Elizabeth Healthcare Edgewood Skilled Nursing Facility",
    "attributes": {
      "parent_system": "",
      "location_count": 1,
      "locations": [
        {
          "location": "Main",
          "address": "1 Medical Village Dr.Edgewood, KY 41017",
          "phone": "(859) 301-9980"
        }
      ]
    },
    "source_id": "facility_342",
    "source_file": ""
  },
  {
    "card_type": "entity",
    "entity_type": "MedicalProvider",
    "name": "St. Elizabeth Healthcare Emergency Department - Covington",
    "attributes": {
      "parent_system": "",
      "location_count": 1,
      "locations": [
        {
          "location": "Main",
          "address": "1500 James Simpson, Jr. WayCovington, KY 41011",
          "phone": "(859) 655-4353"
        }
      ]
    },
    "source_id": "facility_343",
    "source_file": ""
  },
  {
    "card_type": "entity",
    "entity_type": "MedicalProvider",
    "name": "St. Elizabeth Healthcare Emergency Department - Dearborn",
    "attributes": {
      "parent_system": "",
      "location_count": 1,
      "locations": [
        {
          "location": "Main",
          "address": "600 Wilson Creek Rd.Lawrenceburg, IN 47025",
          "phone": "(812) 496-7500"
        }
      ]
    },
    "source_id": "facility_344",
    "source_file": ""
  },
  {
    "card_type": "entity",
    "entity_type": "MedicalProvider",
    "name": "St. Elizabeth Healthcare Emergency Department - Edgewood",
    "attributes": {
      "parent_system": "",
      "location_count": 1,
      "locations": [
        {
          "location": "Main",
          "address": "1 Medical Village DriveEdgewood, KY 41017",
          "phone": "(859) 301-2250"
        }
      ]
    },
    "source_id": "facility_345",
    "source_file": ""
  },
  {
    "card_type": "entity",
    "entity_type": "MedicalProvider",
    "name": "St. Elizabeth Healthcare Emergency Department - Florence",
    "attributes": {
      "parent_system": "",
      "location_count": 1,
      "locations": [
        {
          "location": "Main",
          "address": "4900 Houston RoadFlorence, KY 41042",
          "phone": "(859) 212-5441"
        }
      ]
    },
    "source_id": "facility_346",
    "source_file": ""
  },
  {
    "card_type": "entity",
    "entity_type": "MedicalProvider",
    "name": "St. Elizabeth Healthcare Emergency Department - Ft. Thomas",
    "attributes": {
      "parent_system": "",
      "location_count": 1,
      "locations": [
        {
          "location": "Main",
          "address": "85 N. Grand AvenueFt. Thomas, KY 41075",
          "phone": ""
        }
      ]
    },
    "source_id": "facility_347",
    "source_file": ""
  },
  {
    "card_type": "entity",
    "entity_type": "MedicalProvider",
    "name": "St. Elizabeth Healthcare Emergency Department - Grant",
    "attributes": {
      "parent_system": "",
      "location_count": 1,
      "locations": [
        {
          "location": "Main",
          "address": "238 Barnes RoadWilliamstown, KY 41097",
          "phone": "(859) 824-8114"
        }
      ]
    },
    "source_id": "facility_348",
    "source_file": ""
  },
  {
    "card_type": "entity",
    "entity_type": "MedicalProvider",
    "name": "St. Elizabeth Healthcare Florence Hospital",
    "attributes": {
      "parent_system": "",
      "location_count": 1,
      "locations": [
        {
          "location": "Main",
          "address": "4900 Houston Rd.Florence, KY 41042",
          "phone": "(859) 212-5200"
        }
      ]
    },
    "source_id": "facility_349",
    "source_file": ""
  },
  {
    "card_type": "entity",
    "entity_type": "MedicalProvider",
    "name": "St. Elizabeth Healthcare Ft. Thomas (Obstetrical Ultrasound and Perinatal Testing ONLY)",
    "attributes": {
      "parent_system": "",
      "location_count": 1,
      "locations": [
        {
          "location": "Main",
          "address": "85 N. Grand AvenueFt. Thomas, KY 41075-1793",
          "phone": "(859) 572-3100"
        }
      ]
    },
    "source_id": "facility_350",
    "source_file": ""
  },
  {
    "card_type": "entity",
    "entity_type": "MedicalProvider",
    "name": "St. Elizabeth Healthcare Ft. Thomas Hospital",
    "attributes": {
      "parent_system": "",
      "location_count": 1,
      "locations": [
        {
          "location": "Main",
          "address": "85 N. Grand Ave.Ft. Thomas, KY 41075",
          "phone": "(859) 572-3100"
        }
      ]
    },
    "source_id": "facility_351",
    "source_file": ""
  },
  {
    "card_type": "entity",
    "entity_type": "MedicalProvider",
    "name": "St. Elizabeth Healthcare Ft. Thomas Skilled Nursing Facility",
    "attributes": {
      "parent_system": "",
      "location_count": 1,
      "locations": [
        {
          "location": "Main",
          "address": "85 N. Grand AvenueFt. Thomas, KY 41075",
          "phone": "(859) 572-2350"
        }
      ]
    },
    "source_id": "facility_352",
    "source_file": ""
  },
  {
    "card_type": "entity",
    "entity_type": "MedicalProvider",
    "name": "St. Elizabeth Healthcare Grant Hospital",
    "attributes": {
      "parent_system": "",
      "location_count": 1,
      "locations": [
        {
          "location": "Main",
          "address": "238 Barnes Rd.Williamstown, KY 41097",
          "phone": "(859) 824-8240"
        }
      ]
    },
    "source_id": "facility_353",
    "source_file": ""
  },
  {
    "card_type": "entity",
    "entity_type": "MedicalProvider",
    "name": "St. Elizabeth Healthcare Grant Skilled Nursing Facility",
    "attributes": {
      "parent_system": "",
      "location_count": 1,
      "locations": [
        {
          "location": "Main",
          "address": "238 Barnes Rd.Williamstown, KY 41097",
          "phone": "(859) 824-8240"
        }
      ]
    },
    "source_id": "facility_354",
    "source_file": ""
  },
  {
    "card_type": "entity",
    "entity_type": "MedicalProvider",
    "name": "St. Elizabeth Healthcare Health Ministries",
    "attributes": {
      "parent_system": "",
      "location_count": 1,
      "locations": [
        {
          "location": "Main",
          "address": "85 North Grand Ave.Ft. Thomas, KY 41075",
          "phone": "(859) 655-6749"
        }
      ]
    },
    "source_id": "facility_355",
    "source_file": ""
  },
  {
    "card_type": "entity",
    "entity_type": "MedicalProvider",
    "name": "St. Elizabeth Healthcare Human Resources",
    "attributes": {
      "parent_system": "",
      "location_count": 1,
      "locations": [
        {
          "location": "Main",
          "address": "1360 Dolwick Dr.  Suite 105Erlanger, KY 41018",
          "phone": "(859) 301-2150"
        }
      ]
    },
    "source_id": "facility_356",
    "source_file": ""
  },
  {
    "card_type": "entity",
    "entity_type": "MedicalProvider",
    "name": "St. Elizabeth Healthcare Specialty Pharmacy",
    "attributes": {
      "parent_system": "",
      "location_count": 1,
      "locations": [
        {
          "location": "Main",
          "address": "850 Thomas More ParkwayEdgewood, KY 41017",
          "phone": "(859) 301-4525"
        }
      ]
    },
    "source_id": "facility_357",
    "source_file": ""
  },
  {
    "card_type": "entity",
    "entity_type": "MedicalProvider",
    "name": "St. Elizabeth Healthcare Training and Education Center (SETEC)",
    "attributes": {
      "parent_system": "",
      "location_count": 1,
      "locations": [
        {
          "location": "Main",
          "address": "3861 Olympic BlvdErlanger, KY 41018",
          "phone": "(859) 655-1600"
        }
      ]
    },
    "source_id": "facility_358",
    "source_file": ""
  },
  {
    "card_type": "entity",
    "entity_type": "MedicalProvider",
    "name": "Stroke Services - Edgewood",
    "attributes": {
      "parent_system": "",
      "location_count": 1,
      "locations": [
        {
          "location": "Main",
          "address": "1 Medical Village DriveEdgewood, KY 41017",
          "phone": "(859) 301-2000"
        }
      ]
    },
    "source_id": "facility_359",
    "source_file": ""
  },
  {
    "card_type": "entity",
    "entity_type": "MedicalProvider",
    "name": "Structural Heart & Valve Center - Edgewood",
    "attributes": {
      "parent_system": "",
      "location_count": 1,
      "locations": [
        {
          "location": "Main",
          "address": "1 Medical Village DriveEdgewood, KY 41017-3403",
          "phone": "(859) 301-8287"
        }
      ]
    },
    "source_id": "facility_360",
    "source_file": ""
  },
  {
    "card_type": "entity",
    "entity_type": "MedicalProvider",
    "name": "Structural Heart & Valve Center - Edgewood Heart & Vascular Institute",
    "attributes": {
      "parent_system": "",
      "location_count": 1,
      "locations": [
        {
          "location": "Main",
          "address": "711 Medical Village DriveEdgewood, KY 41017-3439",
          "phone": "(859) 301-8287"
        }
      ]
    },
    "source_id": "facility_361",
    "source_file": ""
  },
  {
    "card_type": "entity",
    "entity_type": "MedicalProvider",
    "name": "Surgical Oncology - Edgewood Cancer Center",
    "attributes": {
      "parent_system": "",
      "location_count": 1,
      "locations": [
        {
          "location": "Main",
          "address": "1 Medical Village DriveEdgewood, KY 41017-3403",
          "phone": "(859) 301-4186"
        }
      ]
    },
    "source_id": "facility_362",
    "source_file": ""
  },
  {
    "card_type": "entity",
    "entity_type": "MedicalProvider",
    "name": "Thoracic Surgeons- Edgewood Cancer Center",
    "attributes": {
      "parent_system": "",
      "location_count": 1,
      "locations": [
        {
          "location": "Main",
          "address": "1 Medical Village DriveEdgewood, KY 41017-3403",
          "phone": "(859) 301-2465"
        }
      ]
    },
    "source_id": "facility_363",
    "source_file": ""
  },
  {
    "card_type": "entity",
    "entity_type": "MedicalProvider",
    "name": "Total Joint Center",
    "attributes": {
      "parent_system": "",
      "location_count": 1,
      "locations": [
        {
          "location": "Main",
          "address": "1 Medical Village Dr.Edgewood, KY 41017",
          "phone": "(859) 301-0405"
        }
      ]
    },
    "source_id": "facility_364",
    "source_file": ""
  },
  {
    "card_type": "entity",
    "entity_type": "MedicalProvider",
    "name": "Urgent Care - Crittenden",
    "attributes": {
      "parent_system": "",
      "location_count": 1,
      "locations": [
        {
          "location": "Main",
          "address": "405 Violet RoadCrittenden, KY 41030-8956",
          "phone": "(859) 903-0268"
        }
      ]
    },
    "source_id": "facility_365",
    "source_file": ""
  },
  {
    "card_type": "entity",
    "entity_type": "MedicalProvider",
    "name": "Urgent Care - Florence",
    "attributes": {
      "parent_system": "",
      "location_count": 1,
      "locations": [
        {
          "location": "Main",
          "address": "8726 US Highway 42Florence, KY 41042-8550",
          "phone": "(859) 647-2900"
        }
      ]
    },
    "source_id": "facility_366",
    "source_file": ""
  },
  {
    "card_type": "entity",
    "entity_type": "MedicalProvider",
    "name": "Urgent Care - Greendale",
    "attributes": {
      "parent_system": "",
      "location_count": 1,
      "locations": [
        {
          "location": "Main",
          "address": "1640 Flossie DriveGreendale, IN 47025-8424",
          "phone": "(812) 496-3285"
        }
      ]
    },
    "source_id": "facility_367",
    "source_file": ""
  },
  {
    "card_type": "entity",
    "entity_type": "MedicalProvider",
    "name": "Urgent Care - Highland Heights",
    "attributes": {
      "parent_system": "",
      "location_count": 1,
      "locations": [
        {
          "location": "Main",
          "address": "2626 Alexandria PikeHighland Heights, KY 41076-1530",
          "phone": "(859) 757-0434"
        }
      ]
    },
    "source_id": "facility_368",
    "source_file": ""
  },
  {
    "card_type": "entity",
    "entity_type": "MedicalProvider",
    "name": "Urgent Care - Newport/Ft. Thomas",
    "attributes": {
      "parent_system": "",
      "location_count": 1,
      "locations": [
        {
          "location": "Main",
          "address": "1400 Grand AvenueNewport, KY 41071-2570",
          "phone": "(859) 905-3070"
        }
      ]
    },
    "source_id": "facility_369",
    "source_file": ""
  },
  {
    "card_type": "entity",
    "entity_type": "MedicalProvider",
    "name": "Urgent Care - Union Richwood",
    "attributes": {
      "parent_system": "",
      "location_count": 1,
      "locations": [
        {
          "location": "Main",
          "address": "605 Man O War BoulevardUnion, KY 41091-2007",
          "phone": "(859) 578-5669"
        }
      ]
    },
    "source_id": "facility_370",
    "source_file": ""
  },
  {
    "card_type": "entity",
    "entity_type": "MedicalProvider",
    "name": "Urogynecology - Edgewood 610 Medical",
    "attributes": {
      "parent_system": "",
      "location_count": 1,
      "locations": [
        {
          "location": "Main",
          "address": "610 Medical Village DriveEdgewood, KY 41017-3416",
          "phone": "(859) 757-2132"
        }
      ]
    },
    "source_id": "facility_371",
    "source_file": ""
  },
  {
    "card_type": "entity",
    "entity_type": "MedicalProvider",
    "name": "Urogynecology - Greendale",
    "attributes": {
      "parent_system": "",
      "location_count": 1,
      "locations": [
        {
          "location": "Main",
          "address": "1640 Flossie DriveGreendale, IN 47025-8424",
          "phone": "(859) 757-2132"
        }
      ]
    },
    "source_id": "facility_372",
    "source_file": ""
  },
  {
    "card_type": "entity",
    "entity_type": "MedicalProvider",
    "name": "Urology - Florence Turfway",
    "attributes": {
      "parent_system": "",
      "location_count": 1,
      "locations": [
        {
          "location": "Main",
          "address": "7370 Turfway RoadFlorence, KY 41042-4896",
          "phone": "(859) 212-0497"
        }
      ]
    },
    "source_id": "facility_373",
    "source_file": ""
  },
  {
    "card_type": "entity",
    "entity_type": "MedicalProvider",
    "name": "Urology - Newport/Ft. Thomas",
    "attributes": {
      "parent_system": "",
      "location_count": 1,
      "locations": [
        {
          "location": "Main",
          "address": "1400 Grand AvenueNewport, KY 41071-2570",
          "phone": "(859) 212-0497"
        }
      ]
    },
    "source_id": "facility_374",
    "source_file": ""
  },
  {
    "card_type": "entity",
    "entity_type": "MedicalProvider",
    "name": "Urology- Lawrenceburg Bielby",
    "attributes": {
      "parent_system": "",
      "location_count": 1,
      "locations": [
        {
          "location": "Main",
          "address": "368 Bielby RoadLawrenceburg, IN 47025-1099",
          "phone": "(859) 212-0497"
        }
      ]
    },
    "source_id": "facility_375",
    "source_file": ""
  },
  {
    "card_type": "entity",
    "entity_type": "MedicalProvider",
    "name": "Vascular Imaging Center - Edgewood",
    "attributes": {
      "parent_system": "",
      "location_count": 1,
      "locations": [
        {
          "location": "Main",
          "address": "20 Medical Village Dr.Edgewood, KY 41017",
          "phone": "(859) 301-5663"
        }
      ]
    },
    "source_id": "facility_376",
    "source_file": ""
  },
  {
    "card_type": "entity",
    "entity_type": "MedicalProvider",
    "name": "Vascular Surgery - Covington",
    "attributes": {
      "parent_system": "",
      "location_count": 1,
      "locations": [
        {
          "location": "Main",
          "address": "1500 James Simpson Jr WayCovington, KY 41011-0801",
          "phone": "(859) 344-1600"
        }
      ]
    },
    "source_id": "facility_377",
    "source_file": ""
  },
  {
    "card_type": "entity",
    "entity_type": "MedicalProvider",
    "name": "Vascular Surgery - Edgewood",
    "attributes": {
      "parent_system": "",
      "location_count": 1,
      "locations": [
        {
          "location": "Main",
          "address": "1 Medical Village DriveEdgewood, KY 41017-3403",
          "phone": "(859) 344-1600"
        }
      ]
    },
    "source_id": "facility_378",
    "source_file": ""
  },
  {
    "card_type": "entity",
    "entity_type": "MedicalProvider",
    "name": "Vascular Surgery - Edgewood Suite 254",
    "attributes": {
      "parent_system": "",
      "location_count": 1,
      "locations": [
        {
          "location": "Main",
          "address": "20 Medical Village DriveEdgewood, KY 41017-5401",
          "phone": "(859) 344-1600"
        }
      ]
    },
    "source_id": "facility_379",
    "source_file": ""
  },
  {
    "card_type": "entity",
    "entity_type": "MedicalProvider",
    "name": "Vascular Surgery - Florence",
    "attributes": {
      "parent_system": "",
      "location_count": 1,
      "locations": [
        {
          "location": "Main",
          "address": "4900 Houston RoadFlorence, KY 41042-4824",
          "phone": "(859) 344-1600"
        }
      ]
    },
    "source_id": "facility_380",
    "source_file": ""
  },
  {
    "card_type": "entity",
    "entity_type": "MedicalProvider",
    "name": "Vascular Surgery - Ft. Thomas",
    "attributes": {
      "parent_system": "",
      "location_count": 1,
      "locations": [
        {
          "location": "Main",
          "address": "85 North Grand AvenueFt. Thomas, KY 41075-1793",
          "phone": "(859) 344-1600"
        }
      ]
    },
    "source_id": "facility_381",
    "source_file": ""
  },
  {
    "card_type": "entity",
    "entity_type": "MedicalProvider",
    "name": "Vascular Surgery - Lawrenceburg",
    "attributes": {
      "parent_system": "",
      "location_count": 1,
      "locations": [
        {
          "location": "Main",
          "address": "368 Bielby RoadLawrenceburg, IN 47025-1099",
          "phone": "(812) 496-8771"
        }
      ]
    },
    "source_id": "facility_382",
    "source_file": ""
  },
  {
    "card_type": "entity",
    "entity_type": "MedicalProvider",
    "name": "Vascular Surgery - Newport",
    "attributes": {
      "parent_system": "",
      "location_count": 1,
      "locations": [
        {
          "location": "Main",
          "address": "1400 Grand AvenueNewport, KY 41071-2570",
          "phone": "(859) 441-3818"
        }
      ]
    },
    "source_id": "facility_383",
    "source_file": ""
  },
  {
    "card_type": "entity",
    "entity_type": "MedicalProvider",
    "name": "Virtual Health Center- Dolwick",
    "attributes": {
      "parent_system": "",
      "location_count": 1,
      "locations": [
        {
          "location": "Main",
          "address": "1360 Dolwick DriveErlanger, KY 41018-3127",
          "phone": "(800) 737-7900"
        }
      ]
    },
    "source_id": "facility_384",
    "source_file": ""
  },
  {
    "card_type": "entity",
    "entity_type": "MedicalProvider",
    "name": "Volunteer Services - Covington",
    "attributes": {
      "parent_system": "",
      "location_count": 1,
      "locations": [
        {
          "location": "Main",
          "address": "1500 James Simpson, Jr. WayCovington, KY 41011",
          "phone": "(859) 301-2140"
        }
      ]
    },
    "source_id": "facility_385",
    "source_file": ""
  },
  {
    "card_type": "entity",
    "entity_type": "MedicalProvider",
    "name": "Volunteer Services - Edgewood",
    "attributes": {
      "parent_system": "",
      "location_count": 1,
      "locations": [
        {
          "location": "Main",
          "address": "1 Medical Village DriveEdgewood, KY 41017",
          "phone": "(859) 301-2140"
        }
      ]
    },
    "source_id": "facility_386",
    "source_file": ""
  },
  {
    "card_type": "entity",
    "entity_type": "MedicalProvider",
    "name": "Volunteer Services - Florence",
    "attributes": {
      "parent_system": "",
      "location_count": 1,
      "locations": [
        {
          "location": "Main",
          "address": "4900 Houston RoadFlorence, KY 41042",
          "phone": "(859) 212-5375"
        }
      ]
    },
    "source_id": "facility_387",
    "source_file": ""
  },
  {
    "card_type": "entity",
    "entity_type": "MedicalProvider",
    "name": "Volunteer Services - Ft. Thomas",
    "attributes": {
      "parent_system": "",
      "location_count": 1,
      "locations": [
        {
          "location": "Main",
          "address": "85 N. Grand AvenueFt. Thomas, KY 41075",
          "phone": "(859) 572-3166"
        }
      ]
    },
    "source_id": "facility_388",
    "source_file": ""
  },
  {
    "card_type": "entity",
    "entity_type": "MedicalProvider",
    "name": "Volunteer Services - Grant",
    "attributes": {
      "parent_system": "",
      "location_count": 1,
      "locations": [
        {
          "location": "Main",
          "address": "238 Barnes RoadWilliamstown, KY 41097",
          "phone": "(859) 301-2140"
        }
      ]
    },
    "source_id": "facility_389",
    "source_file": ""
  },
  {
    "card_type": "entity",
    "entity_type": "MedicalProvider",
    "name": "Weight Management - Florence",
    "attributes": {
      "parent_system": "",
      "location_count": 1,
      "locations": [
        {
          "location": "Main",
          "address": "4900 Houston RoadFlorence, KY 41042-4824",
          "phone": "(859) 212-4625"
        }
      ]
    },
    "source_id": "facility_390",
    "source_file": ""
  },
  {
    "card_type": "entity",
    "entity_type": "MedicalProvider",
    "name": "Weight Management - Greendale",
    "attributes": {
      "parent_system": "",
      "location_count": 1,
      "locations": [
        {
          "location": "Main",
          "address": "1640 Flossie DriveGreendale, IN 47025-8424",
          "phone": "(859) 212-4625"
        }
      ]
    },
    "source_id": "facility_391",
    "source_file": ""
  },
  {
    "card_type": "entity",
    "entity_type": "MedicalProvider",
    "name": "Weight Management - Newport/Ft. Thomas",
    "attributes": {
      "parent_system": "",
      "location_count": 1,
      "locations": [
        {
          "location": "Main",
          "address": "1400 Grand AvenueNewport, KY 41071-2570",
          "phone": "(859) 212-4625"
        }
      ]
    },
    "source_id": "facility_392",
    "source_file": ""
  },
  {
    "card_type": "entity",
    "entity_type": "MedicalProvider",
    "name": "Women's Health - Burlington",
    "attributes": {
      "parent_system": "",
      "location_count": 1,
      "locations": [
        {
          "location": "Main",
          "address": "6105 1st Financial DriveBurlington, KY 41005-7892",
          "phone": "(859) 525-1846"
        }
      ]
    },
    "source_id": "facility_393",
    "source_file": ""
  },
  {
    "card_type": "entity",
    "entity_type": "MedicalProvider",
    "name": "Women's Health - Crestview Hills",
    "attributes": {
      "parent_system": "",
      "location_count": 1,
      "locations": [
        {
          "location": "Main",
          "address": "351 Centre View BoulevardCrestview Hills, KY 41017-3477",
          "phone": "(859) 331-4665"
        }
      ]
    },
    "source_id": "facility_394",
    "source_file": ""
  },
  {
    "card_type": "entity",
    "entity_type": "MedicalProvider",
    "name": "Women's Health - Crittenden",
    "attributes": {
      "parent_system": "",
      "location_count": 1,
      "locations": [
        {
          "location": "Main",
          "address": "405 Violet RoadCrittenden, KY 41030-8956",
          "phone": "(859) 331-4665"
        }
      ]
    },
    "source_id": "facility_395",
    "source_file": ""
  },
  {
    "card_type": "entity",
    "entity_type": "MedicalProvider",
    "name": "Women's Health - Edgewood 1 Medical Village",
    "attributes": {
      "parent_system": "",
      "location_count": 1,
      "locations": [
        {
          "location": "Main",
          "address": "1 Medical Village DriveEdgewood, KY 41017-3403",
          "phone": "(859) 331-4665"
        }
      ]
    },
    "source_id": "facility_396",
    "source_file": ""
  },
  {
    "card_type": "entity",
    "entity_type": "MedicalProvider",
    "name": "Women's Health - Edgewood Suite 302",
    "attributes": {
      "parent_system": "",
      "location_count": 1,
      "locations": [
        {
          "location": "Main",
          "address": "20 Medical Village DriveEdgewood, KY 41017-5401",
          "phone": "(859) 341-2510"
        }
      ]
    },
    "source_id": "facility_397",
    "source_file": ""
  },
  {
    "card_type": "entity",
    "entity_type": "MedicalProvider",
    "name": "Women's Health - Florence Turfway",
    "attributes": {
      "parent_system": "",
      "location_count": 1,
      "locations": [
        {
          "location": "Main",
          "address": "7370 Turfway RoadFlorence, KY 41042-4896",
          "phone": "(859) 212-5125"
        }
      ]
    },
    "source_id": "facility_398",
    "source_file": ""
  },
  {
    "card_type": "entity",
    "entity_type": "MedicalProvider",
    "name": "Women's Health - Highland Heights",
    "attributes": {
      "parent_system": "",
      "location_count": 1,
      "locations": [
        {
          "location": "Main",
          "address": "2626 Alexandria PikeHighland Heights, KY 41076-1530",
          "phone": "(859) 912-6500"
        }
      ]
    },
    "source_id": "facility_399",
    "source_file": ""
  },
  {
    "card_type": "entity",
    "entity_type": "MedicalProvider",
    "name": "Women's Health - Lawrenceburg Elm Street",
    "attributes": {
      "parent_system": "",
      "location_count": 1,
      "locations": [
        {
          "location": "Main",
          "address": "98 Elm StreetLawrenceburg, IN 47025-2048",
          "phone": "(812) 496-8776"
        }
      ]
    },
    "source_id": "facility_400",
    "source_file": ""
  },
  {
    "card_type": "entity",
    "entity_type": "MedicalProvider",
    "name": "Women's Health - Newport/Ft. Thomas",
    "attributes": {
      "parent_system": "",
      "location_count": 1,
      "locations": [
        {
          "location": "Main",
          "address": "1400 Grand AvenueNewport, KY 41071-2570",
          "phone": "(859) 781-6222"
        }
      ]
    },
    "source_id": "facility_401",
    "source_file": ""
  },
  {
    "card_type": "entity",
    "entity_type": "MedicalProvider",
    "name": "Women's Health - Union Richwood",
    "attributes": {
      "parent_system": "",
      "location_count": 1,
      "locations": [
        {
          "location": "Main",
          "address": "605 Man O War BoulevardUnion, KY 41091-2007",
          "phone": "(859) 578-5667"
        }
      ]
    },
    "source_id": "facility_402",
    "source_file": ""
  },
  {
    "card_type": "entity",
    "entity_type": "MedicalProvider",
    "name": "Women's Health Center - Edgewood",
    "attributes": {
      "parent_system": "",
      "location_count": 1,
      "locations": [
        {
          "location": "Main",
          "address": "600 Medical Village Dr.Edgewood, KY 41017",
          "phone": "(859) 301-6382"
        }
      ]
    },
    "source_id": "facility_403",
    "source_file": ""
  },
  {
    "card_type": "entity",
    "entity_type": "MedicalProvider",
    "name": "Wound Care - Covington",
    "attributes": {
      "parent_system": "",
      "location_count": 1,
      "locations": [
        {
          "location": "Main",
          "address": "1500 James Simpson Jr WayCovington, KY 41011-0801",
          "phone": "(859) 655-1100"
        }
      ]
    },
    "source_id": "facility_404",
    "source_file": ""
  },
  {
    "card_type": "entity",
    "entity_type": "MedicalProvider",
    "name": "Wound Care - Dearborn",
    "attributes": {
      "parent_system": "",
      "location_count": 1,
      "locations": [
        {
          "location": "Main",
          "address": "600 Wilson Creek RoadLawrenceburg, IN 47025-2751",
          "phone": "(812) 496-7730"
        }
      ]
    },
    "source_id": "facility_405",
    "source_file": ""
  },
  {
    "card_type": "entity",
    "entity_type": "MedicalProvider",
    "name": "Wound Care - Ft. Thomas",
    "attributes": {
      "parent_system": "",
      "location_count": 1,
      "locations": [
        {
          "location": "Main",
          "address": "85 North Grand AvenueFt. Thomas, KY 41075-1793",
          "phone": "(859) 572-3830"
        }
      ]
    },
    "source_id": "facility_406",
    "source_file": ""
  },
  {
    "card_type": "entity",
    "entity_type": "MedicalProvider",
    "name": "Wound Care - Grant",
    "attributes": {
      "parent_system": "",
      "location_count": 1,
      "locations": [
        {
          "location": "Main",
          "address": "238 Barnes RoadWilliamstown, KY 41097-9482",
          "phone": "(859) 655-1100"
        }
      ]
    },
    "source_id": "facility_407",
    "source_file": ""
  },
  {
    "card_type": "entity",
    "entity_type": "MedicalProvider",
    "name": "Yung Family Cancer Center - Edgewood",
    "attributes": {
      "parent_system": "",
      "location_count": 1,
      "locations": [
        {
          "location": "Main",
          "address": "1 Medical Village DriveEdgewood, KY 41017",
          "phone": "(859) 301-2238"
        }
      ]
    },
    "source_id": "facility_408",
    "source_file": ""
  }
]