[
  {
    "card_type": "entity",
    "entity_type": "MedicalProvider",
    "name": "Carroll County Memorial Hospital – A Partner of UofL Health",
    "attributes": {
      "parent_system": "",
      "location_count": 1,
      "locations": [
        {
          "location": "Main",
          "address": "309 11th Street, Carrollton, KY 41008",
          "phone": "502-732-3204"
        }
      ]
    },
    "source_id": "facility_0",
    "source_file": ""
  },
  {
    "card_type": "entity",
    "entity_type": "MedicalProvider",
    "name": "Emergency Psychiatry Services",
    "attributes": {
      "parent_system": "",
      "location_count": 1,
      "locations": [
        {
          "location": "Main",
          "address": "UofL Health – UofL Hospital, 530 South Jackson Street, Louisville, KY 40202",
          "phone": "502-562-3120"
        }
      ]
    },
    "source_id": "facility_1",
    "source_file": ""
  },
  {
    "card_type": "entity",
    "entity_type": "MedicalProvider",
    "name": "GI Motility Clinic",
    "attributes": {
      "parent_system": "",
      "location_count": 1,
      "locations": [
        {
          "location": "Main",
          "address": "UofL Health – Abraham Flexner Outpatient Center, 225 Abraham Flexner Way, Suite 502, Louisville, KY 40202",
          "phone": "502-588-7690"
        }
      ]
    },
    "source_id": "facility_2",
    "source_file": ""
  },
  {
    "card_type": "entity",
    "entity_type": "MedicalProvider",
    "name": "University of Louisville Dental Associates",
    "attributes": {
      "parent_system": "",
      "location_count": 1,
      "locations": [
        {
          "location": "Main",
          "address": "501 South Preston Street, Suite 148, Louisville, KY 40202",
          "phone": "502-852-5401"
        }
      ]
    },
    "source_id": "facility_3",
    "source_file": ""
  },
  {
    "card_type": "entity",
    "entity_type": "MedicalProvider",
    "name": "UofL Health – Abraham Flexner Outpatient Center",
    "attributes": {
      "parent_system": "",
      "location_count": 1,
      "locations": [
        {
          "location": "Main",
          "address": "225 Abraham Flexner Way, Louisville, KY 40202",
          "phone": "502-587-4698"
        }
      ]
    },
    "source_id": "facility_4",
    "source_file": ""
  },
  {
    "card_type": "entity",
    "entity_type": "MedicalProvider",
    "name": "UofL Health – Advanced Heart Failure Outreach Clinic – Madisonville",
    "attributes": {
      "parent_system": "",
      "location_count": 1,
      "locations": [
        {
          "location": "Main",
          "address": "Baptist Health Deaconess Madisonville, Heart and Vascular Center, 800 Hospital Drive, Medical Park 1, 1st floor, Madisonville, KY 42431",
          "phone": "502-587-4384"
        }
      ]
    },
    "source_id": "facility_5",
    "source_file": ""
  },
  {
    "card_type": "entity",
    "entity_type": "MedicalProvider",
    "name": "UofL Health – Brown Cancer Center",
    "attributes": {
      "parent_system": "",
      "location_count": 1,
      "locations": [
        {
          "location": "Main",
          "address": "Downtown, 529 South Jackson Street, Louisville, KY 40202",
          "phone": "502-562-4673"
        }
      ]
    },
    "source_id": "facility_6",
    "source_file": ""
  },
  {
    "card_type": "entity",
    "entity_type": "MedicalProvider",
    "name": "UofL Health – Brown Cancer Center – an Affiliate of Mary & Elizabeth Hospital",
    "attributes": {
      "parent_system": "",
      "location_count": 1,
      "locations": [
        {
          "location": "Main",
          "address": "Bluegrass, 1460 Bluegrass Avenue, Louisville, KY 40215",
          "phone": "502-361-8496"
        }
      ]
    },
    "source_id": "facility_7",
    "source_file": ""
  },
  {
    "card_type": "entity",
    "entity_type": "MedicalProvider",
    "name": "UofL Health – Brown Cancer Center – Blood Cancer, Cellular Therapeutics and Transplant Program",
    "attributes": {
      "parent_system": "",
      "location_count": 2,
      "locations": [
        {
          "location": "Main",
          "address": "UofL Health – Jackson Street Outpatient Center, 550 South Jackson Street, Louisville, KY 40202",
          "phone": "502-562-4543"
        },
        {
          "location": "Main",
          "address": "UofL Health – Brown Cancer Center – Northeast, UofL Health – Medical Center Northeast, 2401 Terra Crossing Boulevard, Suite 200, Louisville, KY 40245",
          "phone": "502-562-4543"
        }
      ]
    },
    "source_id": "facility_8",
    "source_file": ""
  },
  {
    "card_type": "entity",
    "entity_type": "MedicalProvider",
    "name": "UofL Health – Brown Cancer Center – Breast Care Center",
    "attributes": {
      "parent_system": "",
      "location_count": 1,
      "locations": [
        {
          "location": "Main",
          "address": "UofL Health – Brown Cancer Center – Downtown, 529 South Jackson Street, Louisville, KY 40202",
          "phone": "502-562-4361"
        }
      ]
    },
    "source_id": "facility_9",
    "source_file": ""
  },
  {
    "card_type": "entity",
    "entity_type": "MedicalProvider",
    "name": "UofL Health – Brown Cancer Center – Medical Center Northeast",
    "attributes": {
      "parent_system": "",
      "location_count": 1,
      "locations": [
        {
          "location": "Main",
          "address": "Northeast, 2401 Terra Crossing Boulevard, Louisville, KY 40245",
          "phone": "502-562-4673"
        }
      ]
    },
    "source_id": "facility_10",
    "source_file": ""
  },
  {
    "card_type": "entity",
    "entity_type": "MedicalProvider",
    "name": "UofL Health – Brown Cancer Center – Medical Oncology",
    "attributes": {
      "parent_system": "",
      "location_count": 1,
      "locations": [
        {
          "location": "Main",
          "address": "UofL Health – Brown Cancer Center – Northeast, UofL Health – Medical Center Northeast, 2401 Terra Crossing Boulevard, Suite 206, Louisville, KY 40245",
          "phone": "502-562-4370"
        }
      ]
    },
    "source_id": "facility_11",
    "source_file": ""
  },
  {
    "card_type": "entity",
    "entity_type": "MedicalProvider",
    "name": "UofL Health – Brown Cancer Center – Neuro-Oncology",
    "attributes": {
      "parent_system": "",
      "location_count": 1,
      "locations": [
        {
          "location": "Main",
          "address": "UofL Health – Brown Cancer Center – Downtown, 529 South Jackson Street, Louisville, KY 40202",
          "phone": "502-588-2160"
        }
      ]
    },
    "source_id": "facility_12",
    "source_file": ""
  },
  {
    "card_type": "entity",
    "entity_type": "MedicalProvider",
    "name": "UofL Health – Brown Cancer Center – Radiation Oncology",
    "attributes": {
      "parent_system": "",
      "location_count": 2,
      "locations": [
        {
          "location": "Main",
          "address": "UofL Health – Brown Cancer Center – Northeast, UofL Health – Medical Center Northeast, 2401 Terra Crossing Boulevard, Suite 102, Louisville, KY 40245",
          "phone": "502-815-7304"
        },
        {
          "location": "Main",
          "address": "UofL Health – Brown Cancer Center – Downtown, 529 South Jackson Street, Lower Level, Louisville, KY 40202",
          "phone": "502-562-4360"
        }
      ]
    },
    "source_id": "facility_13",
    "source_file": ""
  },
  {
    "card_type": "entity",
    "entity_type": "MedicalProvider",
    "name": "UofL Health – Cardiac Rehab",
    "attributes": {
      "parent_system": "",
      "location_count": 1,
      "locations": [
        {
          "location": "Main",
          "address": "UofL Health – Shelbyville Hospital, 727 Hospital Drive, Shelbyville, KY 40065",
          "phone": "502-647-4280"
        }
      ]
    },
    "source_id": "facility_14",
    "source_file": ""
  },
  {
    "card_type": "entity",
    "entity_type": "MedicalProvider",
    "name": "UofL Health – Cardiopulmonary Rehab",
    "attributes": {
      "parent_system": "",
      "location_count": 3,
      "locations": [
        {
          "location": "Main",
          "address": "UofL Health – Medical Center Northeast, 2401 Terra Crossing Boulevard, Suite 301, Louisville, KY 40245",
          "phone": "502-210-4520"
        },
        {
          "location": "Main",
          "address": "UofL Health – Jewish Hospital, 200 Abraham Flexner Way, Louisville, KY 40202",
          "phone": "502-587-4220"
        },
        {
          "location": "Main",
          "address": "UofL Health – Mary & Elizabeth Hospital, Medical Plaza 2, 1900 Bluegrass Avenue, Suite 201, Louisville, KY 40215",
          "phone": "502-361-6738"
        }
      ]
    },
    "source_id": "facility_15",
    "source_file": ""
  },
  {
    "card_type": "entity",
    "entity_type": "MedicalProvider",
    "name": "UofL Health – Center for Women’s Health",
    "attributes": {
      "parent_system": "",
      "location_count": 1,
      "locations": [
        {
          "location": "Main",
          "address": "UofL Health – Mary & Elizabeth Hospital, Medical Plaza 3, 4500 Churchman Avenue, Louisville, KY 40215",
          "phone": "502-977-5907"
        }
      ]
    },
    "source_id": "facility_16",
    "source_file": ""
  },
  {
    "card_type": "entity",
    "entity_type": "MedicalProvider",
    "name": "UofL Health – Chestnut Street Outpatient Center",
    "attributes": {
      "parent_system": "",
      "location_count": 1,
      "locations": [
        {
          "location": "Main",
          "address": "401 East Chestnut Street, Louisville, KY 40202, 5:30 a.m.-6:30 p.m.",
          "phone": "502-588-4600"
        }
      ]
    },
    "source_id": "facility_17",
    "source_file": ""
  },
  {
    "card_type": "entity",
    "entity_type": "MedicalProvider",
    "name": "UofL Health – Chestnut Street Outpatient Center – UofL Hospital Infusion Therapy Clinic",
    "attributes": {
      "parent_system": "",
      "location_count": 1,
      "locations": [
        {
          "location": "Main",
          "address": "401 East Chestnut Street, Lower Level, Louisville, KY 40202, 8:30 a.m.-4:30 p.m.",
          "phone": "502-813-6072"
        }
      ]
    },
    "source_id": "facility_18",
    "source_file": ""
  },
  {
    "card_type": "entity",
    "entity_type": "MedicalProvider",
    "name": "UofL Health – Comprehensive Spine Center",
    "attributes": {
      "parent_system": "",
      "location_count": 1,
      "locations": [
        {
          "location": "Main",
          "address": "UofL Health – Brain & Spine Institute, UofL Health – Medical Center Northeast, 2401 Terra Crossing Boulevard, Suite 350, Louisville, KY 40245",
          "phone": "502-588-2160"
        }
      ]
    },
    "source_id": "facility_19",
    "source_file": ""
  },
  {
    "card_type": "entity",
    "entity_type": "MedicalProvider",
    "name": "UofL Health – Diabetes and Nutrition Care",
    "attributes": {
      "parent_system": "",
      "location_count": 1,
      "locations": [
        {
          "location": "Main",
          "address": "UofL Health – Medical Center Northeast, 2401 Terra Crossing Boulevard, Suite 301, Louisville, KY 40245",
          "phone": "502-587-4465"
        }
      ]
    },
    "source_id": "facility_20",
    "source_file": ""
  },
  {
    "card_type": "entity",
    "entity_type": "MedicalProvider",
    "name": "UofL Health – Eye Institute",
    "attributes": {
      "parent_system": "",
      "location_count": 1,
      "locations": [
        {
          "location": "Main",
          "address": "Kentucky Lions Eye Center, 301 East Muhammad Ali Boulevard, Louisville, KY 40202",
          "phone": "502-588-0550"
        }
      ]
    },
    "source_id": "facility_21",
    "source_file": ""
  },
  {
    "card_type": "entity",
    "entity_type": "MedicalProvider",
    "name": "UofL Health – Frazier Rehabilitation Hospital – Brownsboro",
    "attributes": {
      "parent_system": "",
      "location_count": 1,
      "locations": [
        {
          "location": "Main",
          "address": "5000 Chamberlain Lane, Louisville, KY 40241",
          "phone": "502-861-9600"
        }
      ]
    },
    "source_id": "facility_22",
    "source_file": ""
  },
  {
    "card_type": "entity",
    "entity_type": "MedicalProvider",
    "name": "UofL Health – Frazier Rehabilitation Institute",
    "attributes": {
      "parent_system": "",
      "location_count": 1,
      "locations": [
        {
          "location": "Main",
          "address": "220 Abraham Flexner Way, Louisville, KY 40202",
          "phone": "502-582-7400"
        }
      ]
    },
    "source_id": "facility_23",
    "source_file": ""
  },
  {
    "card_type": "entity",
    "entity_type": "MedicalProvider",
    "name": "UofL Health – Frazier Rehabilitation Institute – Bullitt County",
    "attributes": {
      "parent_system": "",
      "location_count": 1,
      "locations": [
        {
          "location": "Main",
          "address": "UofL Health – South Hospital, Medical Plaza 1, 1905 W. Hebron Lane, Suite 106, Shepherdsville, KY 40165",
          "phone": "502-955-7705"
        }
      ]
    },
    "source_id": "facility_24",
    "source_file": ""
  },
  {
    "card_type": "entity",
    "entity_type": "MedicalProvider",
    "name": "UofL Health – Frazier Rehabilitation Institute – Center for Advanced NeuroRehab – Brain Injury & Stroke Program",
    "attributes": {
      "parent_system": "",
      "location_count": 1,
      "locations": [
        {
          "location": "Main",
          "address": "220 Abraham Flexner Way, Louisville, KY 40202",
          "phone": "502-560-8389"
        }
      ]
    },
    "source_id": "facility_25",
    "source_file": ""
  },
  {
    "card_type": "entity",
    "entity_type": "MedicalProvider",
    "name": "UofL Health – Frazier Rehabilitation Institute – Center for Advanced NeuroRehab – Spinal Cord Injury Program",
    "attributes": {
      "parent_system": "",
      "location_count": 1,
      "locations": [
        {
          "location": "Main",
          "address": "220 Abraham Flexner Way, Louisville, KY 40202",
          "phone": "502-582-7415"
        }
      ]
    },
    "source_id": "facility_26",
    "source_file": ""
  },
  {
    "card_type": "entity",
    "entity_type": "MedicalProvider",
    "name": "UofL Health – Frazier Rehabilitation Institute – Community Fitness & Wellness",
    "attributes": {
      "parent_system": "",
      "location_count": 1,
      "locations": [
        {
          "location": "Main",
          "address": "Medical Plaza II, 250 East Liberty Street, Louisville, KY 40202",
          "phone": "502-582-7411"
        }
      ]
    },
    "source_id": "facility_27",
    "source_file": ""
  },
  {
    "card_type": "entity",
    "entity_type": "MedicalProvider",
    "name": "UofL Health – Frazier Rehabilitation Institute – Jeffersontown",
    "attributes": {
      "parent_system": "",
      "location_count": 1,
      "locations": [
        {
          "location": "Main",
          "address": "9553 Taylorsville Road, Louisville, KY 40299",
          "phone": "502-966-4466"
        }
      ]
    },
    "source_id": "facility_28",
    "source_file": ""
  },
  {
    "card_type": "entity",
    "entity_type": "MedicalProvider",
    "name": "UofL Health – Frazier Rehabilitation Institute – Kleinert Kutz Hand Therapy",
    "attributes": {
      "parent_system": "",
      "location_count": 4,
      "locations": [
        {
          "location": "Main",
          "address": "Chamberlain Hand Therapy, 4642 Chamberlain Lane, Suite 203, Louisville, KY 40241",
          "phone": "502-562-0344"
        },
        {
          "location": "Main",
          "address": "East Hand Therapy, 4010 Dupont Circle, Suite 308A, Louisville, KY 40207",
          "phone": "502-562-0334"
        },
        {
          "location": "Main",
          "address": "Outpatient Care Hand Therapy, UofL Health – Abraham Flexner Outpatient Center, 225 Abraham Flexner Way, Suite 760, Louisville, KY 40202",
          "phone": "502-561-4295"
        },
        {
          "location": "Main",
          "address": "New Albany Hand Therapy, 3605 Northgate Court, Suite 103, New Albany, IN 47150",
          "phone": "812-981-4735"
        }
      ]
    },
    "source_id": "facility_29",
    "source_file": ""
  },
  {
    "card_type": "entity",
    "entity_type": "MedicalProvider",
    "name": "UofL Health – Frazier Rehabilitation Institute – Mary & Elizabeth Hospital",
    "attributes": {
      "parent_system": "",
      "location_count": 1,
      "locations": [
        {
          "location": "Main",
          "address": "UofL Health – Mary & Elizabeth Hospital, Medical Plaza 1, 4402 Churchman Avenue, Suite 106, Louisville, KY 40215",
          "phone": "502-363-7800"
        }
      ]
    },
    "source_id": "facility_30",
    "source_file": ""
  },
  {
    "card_type": "entity",
    "entity_type": "MedicalProvider",
    "name": "UofL Health – Frazier Rehabilitation Institute – Medical Center East",
    "attributes": {
      "parent_system": "",
      "location_count": 1,
      "locations": [
        {
          "location": "Main",
          "address": "UofL Health – Medical Center East, 3920 Dutchmans Lane, Louisville, KY 40207",
          "phone": "502-259-6608"
        }
      ]
    },
    "source_id": "facility_31",
    "source_file": ""
  },
  {
    "card_type": "entity",
    "entity_type": "MedicalProvider",
    "name": "UofL Health – Frazier Rehabilitation Institute – Newburg",
    "attributes": {
      "parent_system": "",
      "location_count": 1,
      "locations": [
        {
          "location": "Main",
          "address": "3430 Newburg Road, Suite 111, Louisville, KY 40218",
          "phone": "502-451-6886"
        }
      ]
    },
    "source_id": "facility_32",
    "source_file": ""
  },
  {
    "card_type": "entity",
    "entity_type": "MedicalProvider",
    "name": "UofL Health – Frazier Rehabilitation Institute – Northeast",
    "attributes": {
      "parent_system": "",
      "location_count": 1,
      "locations": [
        {
          "location": "Main",
          "address": "UofL Health – Medical Center Northeast, 2401 Terra Crossing Boulevard, Suite 204, Louisville, KY 40245",
          "phone": "502-210-4500"
        }
      ]
    },
    "source_id": "facility_33",
    "source_file": ""
  },
  {
    "card_type": "entity",
    "entity_type": "MedicalProvider",
    "name": "UofL Health – Frazier Rehabilitation Institute – Owsley Brown Frazier Sports Medicine Center",
    "attributes": {
      "parent_system": "",
      "location_count": 1,
      "locations": [
        {
          "location": "Main",
          "address": "UofL Health – Sports Medicine Institute, Cardinal Station, 215 Central Avenue, Suite 200, Louisville, KY 40208",
          "phone": "502-637-9313"
        }
      ]
    },
    "source_id": "facility_34",
    "source_file": ""
  },
  {
    "card_type": "entity",
    "entity_type": "MedicalProvider",
    "name": "UofL Health – Frazier Rehabilitation Institute – Shelbyville Hospital",
    "attributes": {
      "parent_system": "",
      "location_count": 1,
      "locations": [
        {
          "location": "Main",
          "address": "727 Hospital Drive, Shelbyville, KY 40065",
          "phone": "502-582-7406"
        }
      ]
    },
    "source_id": "facility_35",
    "source_file": ""
  },
  {
    "card_type": "entity",
    "entity_type": "MedicalProvider",
    "name": "UofL Health – Frazier Rehabilitation Institute – Southern Indiana YMCA",
    "attributes": {
      "parent_system": "",
      "location_count": 1,
      "locations": [
        {
          "location": "Main",
          "address": "Jeffersonville YMCA, 4812 Hamburg Pike, Jeffersonville, IN 47131",
          "phone": "812-282-4257"
        }
      ]
    },
    "source_id": "facility_36",
    "source_file": ""
  },
  {
    "card_type": "entity",
    "entity_type": "MedicalProvider",
    "name": "UofL Health – Frazier Rehabilitation Institute – Southwest",
    "attributes": {
      "parent_system": "",
      "location_count": 1,
      "locations": [
        {
          "location": "Main",
          "address": "UofL Health – Medical Center Southend, 5129 Dixie Highway, Suite 303, Louisville, KY 40216",
          "phone": "502-937-2288"
        }
      ]
    },
    "source_id": "facility_37",
    "source_file": ""
  },
  {
    "card_type": "entity",
    "entity_type": "MedicalProvider",
    "name": "UofL Health – Frazier Rehabilitation Institute – Sports Medicine",
    "attributes": {
      "parent_system": "",
      "location_count": 1,
      "locations": [
        {
          "location": "Main",
          "address": "UofL Health – Rudd Center, 201 Abraham Flexner Way, Suite 102, Louisville, KY 40202",
          "phone": "502-560-8300"
        }
      ]
    },
    "source_id": "facility_38",
    "source_file": ""
  },
  {
    "card_type": "entity",
    "entity_type": "MedicalProvider",
    "name": "UofL Health – Frazier Rehabilitation Institute – Springhurst",
    "attributes": {
      "parent_system": "",
      "location_count": 1,
      "locations": [
        {
          "location": "Main",
          "address": "4801 Olympia Park Plaza, Suite 1600, Louisville, KY 40241",
          "phone": "502-426-3353"
        }
      ]
    },
    "source_id": "facility_39",
    "source_file": ""
  },
  {
    "card_type": "entity",
    "entity_type": "MedicalProvider",
    "name": "UofL Health – Frazier Rehabilitation Institute – Stonestreet",
    "attributes": {
      "parent_system": "",
      "location_count": 1,
      "locations": [
        {
          "location": "Main",
          "address": "UofL Health – Medical Center Southwest, 9700 Stonestreet Road, Louisville, KY 40272",
          "phone": "502-995-2415"
        }
      ]
    },
    "source_id": "facility_40",
    "source_file": ""
  },
  {
    "card_type": "entity",
    "entity_type": "MedicalProvider",
    "name": "UofL Health – Frazier Rehabilitation Institute – Trager",
    "attributes": {
      "parent_system": "",
      "location_count": 1,
      "locations": [
        {
          "location": "Main",
          "address": "UofL Trager Institute/Optimal Aging Clinic Republic Bank Foundation, 204 East Market Street, Suite 103, Louisville, KY 40202",
          "phone": "502-815-7900"
        }
      ]
    },
    "source_id": "facility_41",
    "source_file": ""
  },
  {
    "card_type": "entity",
    "entity_type": "MedicalProvider",
    "name": "UofL Health – Heart Hospital, A Part of Jewish Hospital",
    "attributes": {
      "parent_system": "",
      "location_count": 1,
      "locations": [
        {
          "location": "Main",
          "address": "UofL Health – Rudd Center, 201 Abraham Flexner Way, Louisville, KY 40202",
          "phone": "502-587-4000"
        }
      ]
    },
    "source_id": "facility_42",
    "source_file": ""
  },
  {
    "card_type": "entity",
    "entity_type": "MedicalProvider",
    "name": "UofL Health – Hep C Center",
    "attributes": {
      "parent_system": "",
      "location_count": 1,
      "locations": [
        {
          "location": "Main",
          "address": "UofL Health – UofL Hospital – Multi-Specialty Clinic, UofL Health – Chestnut Street Outpatient Center, 401 East Chestnut Street, Suite 550, Louisville, KY 40202",
          "phone": "502-588-0425"
        }
      ]
    },
    "source_id": "facility_43",
    "source_file": ""
  },
  {
    "card_type": "entity",
    "entity_type": "MedicalProvider",
    "name": "UofL Health – Jackson Street Outpatient Center",
    "attributes": {
      "parent_system": "",
      "location_count": 1,
      "locations": [
        {
          "location": "Main",
          "address": "550 South Jackson Street, Louisville, KY 40202",
          "phone": "502-588-6000"
        }
      ]
    },
    "source_id": "facility_44",
    "source_file": ""
  },
  {
    "card_type": "entity",
    "entity_type": "MedicalProvider",
    "name": "UofL Health – Jewish Hospital",
    "attributes": {
      "parent_system": "",
      "location_count": 1,
      "locations": [
        {
          "location": "Main",
          "address": "200 Abraham Flexner Way, Louisville, KY 40202",
          "phone": "502-587-4011"
        }
      ]
    },
    "source_id": "facility_45",
    "source_file": ""
  },
  {
    "card_type": "entity",
    "entity_type": "MedicalProvider",
    "name": "UofL Health – Jewish Hospital Emergency Room",
    "attributes": {
      "parent_system": "",
      "location_count": 1,
      "locations": [
        {
          "location": "Main",
          "address": "200 Abraham Flexner Way, Louisville, KY 40202",
          "phone": "502-587-4421"
        }
      ]
    },
    "source_id": "facility_46",
    "source_file": ""
  },
  {
    "card_type": "entity",
    "entity_type": "MedicalProvider",
    "name": "UofL Health – Kidney Transplant Outreach Clinic – Bowling Green",
    "attributes": {
      "parent_system": "",
      "location_count": 1,
      "locations": [
        {
          "location": "Main",
          "address": "1834 Lyda Avenue, Bowling Green, KY 42104",
          "phone": "502-587-4358"
        }
      ]
    },
    "source_id": "facility_47",
    "source_file": ""
  },
  {
    "card_type": "entity",
    "entity_type": "MedicalProvider",
    "name": "UofL Health – Kidney Transplant Outreach Clinic – Henderson",
    "attributes": {
      "parent_system": "",
      "location_count": 1,
      "locations": [
        {
          "location": "Main",
          "address": "1200 Barrett Boulevard, Henderson, KY 42420",
          "phone": "502-587-4358"
        }
      ]
    },
    "source_id": "facility_48",
    "source_file": ""
  },
  {
    "card_type": "entity",
    "entity_type": "MedicalProvider",
    "name": "UofL Health – Kleinert Kutz Surgery Center",
    "attributes": {
      "parent_system": "",
      "location_count": 1,
      "locations": [
        {
          "location": "Main",
          "address": "New Albany Office, 3605 Northgate Court, Suite 101, New Albany, IN 47150, 7:00 a.m.-4:30 p.m. Monday-Friday",
          "phone": "812-981-4747"
        }
      ]
    },
    "source_id": "facility_49",
    "source_file": ""
  },
  {
    "card_type": "entity",
    "entity_type": "MedicalProvider",
    "name": "UofL Health – Mary & Elizabeth Hospital – Infusion Therapy Clinic",
    "attributes": {
      "parent_system": "",
      "location_count": 1,
      "locations": [
        {
          "location": "Main",
          "address": "1850 Bluegrass Avenue, Louisville, KY 40215, 7:30 a.m.-4:30 p.m",
          "phone": "502-361-6044"
        }
      ]
    },
    "source_id": "facility_50",
    "source_file": ""
  },
  {
    "card_type": "entity",
    "entity_type": "MedicalProvider",
    "name": "UofL Health – Mary & Elizabeth Hospital – Outpatient Lab",
    "attributes": {
      "parent_system": "",
      "location_count": 1,
      "locations": [
        {
          "location": "Main",
          "address": "1850 Bluegrass Avenue, Louisville, KY 40215",
          "phone": "502-361-6497"
        }
      ]
    },
    "source_id": "facility_51",
    "source_file": ""
  },
  {
    "card_type": "entity",
    "entity_type": "MedicalProvider",
    "name": "UofL Health – Mary & Elizabeth Hospital Inpatient Medical Psychiatric and Medical Detox Unit",
    "attributes": {
      "parent_system": "",
      "location_count": 1,
      "locations": [
        {
          "location": "Main",
          "address": "UofL Health – Mary & Elizabeth Hospital, 1850 Bluegrass Avenue, Suite 3C, Louisville, KY 40215",
          "phone": "502-361-6778"
        }
      ]
    },
    "source_id": "facility_52",
    "source_file": ""
  },
  {
    "card_type": "entity",
    "entity_type": "MedicalProvider",
    "name": "UofL Health – Mary & Elizabeth Hospital",
    "attributes": {
      "parent_system": "",
      "location_count": 1,
      "locations": [
        {
          "location": "Main",
          "address": "1850 Bluegrass Avenue, Louisville, KY 40215",
          "phone": "502-361-6000"
        }
      ]
    },
    "source_id": "facility_53",
    "source_file": ""
  },
  {
    "card_type": "entity",
    "entity_type": "MedicalProvider",
    "name": "UofL Health – Mary & Elizabeth Hospital Emergency Room",
    "attributes": {
      "parent_system": "",
      "location_count": 1,
      "locations": [
        {
          "location": "Main",
          "address": "1850 Bluegrass Avenue, Louisville, KY 40215",
          "phone": "502-361-6391"
        }
      ]
    },
    "source_id": "facility_54",
    "source_file": ""
  },
  {
    "card_type": "entity",
    "entity_type": "MedicalProvider",
    "name": "UofL Health – Medical Center East",
    "attributes": {
      "parent_system": "",
      "location_count": 1,
      "locations": [
        {
          "location": "Main",
          "address": "3920 Dutchmans Lane, Louisville, KY 40207",
          "phone": "502-259-6000"
        }
      ]
    },
    "source_id": "facility_55",
    "source_file": ""
  },
  {
    "card_type": "entity",
    "entity_type": "MedicalProvider",
    "name": "UofL Health – Medical Center East – Breast Imaging Center",
    "attributes": {
      "parent_system": "",
      "location_count": 1,
      "locations": [
        {
          "location": "Main",
          "address": "3920 Dutchmans Lane, Louisville, KY 40207",
          "phone": "502-681-1405"
        }
      ]
    },
    "source_id": "facility_56",
    "source_file": ""
  },
  {
    "card_type": "entity",
    "entity_type": "MedicalProvider",
    "name": "UofL Health – Medical Center East – Infusion Therapy Clinic",
    "attributes": {
      "parent_system": "",
      "location_count": 1,
      "locations": [
        {
          "location": "Main",
          "address": "3920 Dutchmans Lane, Louisville, KY 40207, 7:30 a.m.-4 p.m.",
          "phone": "502-681-1405"
        }
      ]
    },
    "source_id": "facility_57",
    "source_file": ""
  },
  {
    "card_type": "entity",
    "entity_type": "MedicalProvider",
    "name": "UofL Health – Medical Center East Emergency Room",
    "attributes": {
      "parent_system": "",
      "location_count": 1,
      "locations": [
        {
          "location": "Main",
          "address": "3920 Dutchmans Lane, Louisville, KY 40207",
          "phone": "502-259-6000"
        }
      ]
    },
    "source_id": "facility_58",
    "source_file": ""
  },
  {
    "card_type": "entity",
    "entity_type": "MedicalProvider",
    "name": "UofL Health – Medical Center Northeast",
    "attributes": {
      "parent_system": "",
      "location_count": 1,
      "locations": [
        {
          "location": "Main",
          "address": "2401 Terra Crossing Boulevard, Louisville, KY 40245",
          "phone": "502-210-4200"
        }
      ]
    },
    "source_id": "facility_59",
    "source_file": ""
  },
  {
    "card_type": "entity",
    "entity_type": "MedicalProvider",
    "name": "UofL Health – Medical Center Northeast – Breast Care Center",
    "attributes": {
      "parent_system": "",
      "location_count": 1,
      "locations": [
        {
          "location": "Main",
          "address": "UofL Health – Brown Cancer Center – Northeast, 2401 Terra Crossing Boulevard, Louisville, KY 40245",
          "phone": "502-210-4321"
        }
      ]
    },
    "source_id": "facility_60",
    "source_file": ""
  },
  {
    "card_type": "entity",
    "entity_type": "MedicalProvider",
    "name": "UofL Health – Medical Center Northeast – Infusion Therapy Clinic",
    "attributes": {
      "parent_system": "",
      "location_count": 1,
      "locations": [
        {
          "location": "Main",
          "address": "UofL Health – Brown Cancer Center – Northeast, 2401 Terra Crossing Boulevard, Louisville, KY 40245",
          "phone": "502-562-4673"
        }
      ]
    },
    "source_id": "facility_61",
    "source_file": ""
  },
  {
    "card_type": "entity",
    "entity_type": "MedicalProvider",
    "name": "UofL Health – Medical Center Southend",
    "attributes": {
      "parent_system": "",
      "location_count": 1,
      "locations": [
        {
          "location": "Main",
          "address": "5129 Dixie Highway, Louisville, KY 40216",
          "phone": "502-447-3242"
        }
      ]
    },
    "source_id": "facility_62",
    "source_file": ""
  },
  {
    "card_type": "entity",
    "entity_type": "MedicalProvider",
    "name": "UofL Health – Medical Center Southwest",
    "attributes": {
      "parent_system": "",
      "location_count": 1,
      "locations": [
        {
          "location": "Main",
          "address": "9700 Stonestreet Road, Louisville, KY 40272",
          "phone": "502-995-2400"
        }
      ]
    },
    "source_id": "facility_63",
    "source_file": ""
  },
  {
    "card_type": "entity",
    "entity_type": "MedicalProvider",
    "name": "UofL Health – Medical Center Southwest Emergency Room",
    "attributes": {
      "parent_system": "",
      "location_count": 1,
      "locations": [
        {
          "location": "Main",
          "address": "9700 Stonestreet Road, Louisville, KY 40272",
          "phone": "502-995-2450"
        }
      ]
    },
    "source_id": "facility_64",
    "source_file": ""
  },
  {
    "card_type": "entity",
    "entity_type": "MedicalProvider",
    "name": "UofL Health – Peace Hospital",
    "attributes": {
      "parent_system": "",
      "location_count": 1,
      "locations": [
        {
          "location": "Main",
          "address": "2020 Newburg Road, Louisville, KY 40205",
          "phone": "502-451-3330"
        }
      ]
    },
    "source_id": "facility_65",
    "source_file": ""
  },
  {
    "card_type": "entity",
    "entity_type": "MedicalProvider",
    "name": "UofL Health – Peace Hospital Adult Outpatient Center",
    "attributes": {
      "parent_system": "",
      "location_count": 1,
      "locations": [
        {
          "location": "Main",
          "address": "UofL Health – Peace Hospital, 4414 Churchman Avenue, Louisville, KY 40215",
          "phone": "502-363-7900"
        }
      ]
    },
    "source_id": "facility_66",
    "source_file": ""
  },
  {
    "card_type": "entity",
    "entity_type": "MedicalProvider",
    "name": "UofL Health – Pulmonary Hypertension Clinic",
    "attributes": {
      "parent_system": "",
      "location_count": 1,
      "locations": [
        {
          "location": "Main",
          "address": "UofL Health – Chestnut Street Outpatient Center, 401 East Chestnut Street, Suite 310, Louisville, KY 40202",
          "phone": "502-588-4710"
        }
      ]
    },
    "source_id": "facility_67",
    "source_file": ""
  },
  {
    "card_type": "entity",
    "entity_type": "MedicalProvider",
    "name": "UofL Health – Reflux, Swallowing and Hernia Center",
    "attributes": {
      "parent_system": "",
      "location_count": 1,
      "locations": [
        {
          "location": "Main",
          "address": "UofL Health – Chestnut Street Outpatient Center, 401 East Chestnut Street, Suite 710, Louisville, KY 40202",
          "phone": "502-588-4571"
        }
      ]
    },
    "source_id": "facility_68",
    "source_file": ""
  },
  {
    "card_type": "entity",
    "entity_type": "MedicalProvider",
    "name": "UofL Health – Rudd Center",
    "attributes": {
      "parent_system": "",
      "location_count": 1,
      "locations": [
        {
          "location": "Main",
          "address": "201 Abraham Flexner Way, Louisville, KY 40202",
          "phone": "502-588-7600"
        }
      ]
    },
    "source_id": "facility_69",
    "source_file": ""
  },
  {
    "card_type": "entity",
    "entity_type": "MedicalProvider",
    "name": "UofL Health – Shelbyville Hospital",
    "attributes": {
      "parent_system": "",
      "location_count": 1,
      "locations": [
        {
          "location": "Main",
          "address": "727 Hospital Drive, Shelbyville, KY 40065",
          "phone": "502-647-4000"
        }
      ]
    },
    "source_id": "facility_70",
    "source_file": ""
  },
  {
    "card_type": "entity",
    "entity_type": "MedicalProvider",
    "name": "UofL Health – Shelbyville Hospital Emergency Room",
    "attributes": {
      "parent_system": "",
      "location_count": 1,
      "locations": [
        {
          "location": "Main",
          "address": "727 Hospital Drive, Shelbyville, KY 40065",
          "phone": "502-647-4000"
        }
      ]
    },
    "source_id": "facility_71",
    "source_file": ""
  },
  {
    "card_type": "entity",
    "entity_type": "MedicalProvider",
    "name": "UofL Health – Sleep Center",
    "attributes": {
      "parent_system": "",
      "location_count": 2,
      "locations": [
        {
          "location": "Main",
          "address": "UofL Health – Shelbyville Hospital, 727 Hospital Drive, Shelbyville, KY 40065",
          "phone": "502-647-4276"
        },
        {
          "location": "Main",
          "address": "UofL Health – Medical Center East, 3920 Dutchmans Lane, 1st Floor, Louisville, KY 40207",
          "phone": "502-259-6307"
        }
      ]
    },
    "source_id": "facility_72",
    "source_file": ""
  },
  {
    "card_type": "entity",
    "entity_type": "MedicalProvider",
    "name": "UofL Health – South Hospital",
    "attributes": {
      "parent_system": "",
      "location_count": 1,
      "locations": [
        {
          "location": "Main",
          "address": "1903 West Hebron Lane, Shepherdsville, KY 40165",
          "phone": "502-955-3000"
        }
      ]
    },
    "source_id": "facility_73",
    "source_file": ""
  },
  {
    "card_type": "entity",
    "entity_type": "MedicalProvider",
    "name": "UofL Health – South Hospital Emergency Room",
    "attributes": {
      "parent_system": "",
      "location_count": 1,
      "locations": [
        {
          "location": "Main",
          "address": "1903 West Hebron Lane, Shepherdsville, KY 40165",
          "phone": "502-955-3000"
        }
      ]
    },
    "source_id": "facility_74",
    "source_file": ""
  },
  {
    "card_type": "entity",
    "entity_type": "MedicalProvider",
    "name": "UofL Health – Sports Medicine Institute",
    "attributes": {
      "parent_system": "",
      "location_count": 1,
      "locations": [
        {
          "location": "Main",
          "address": "Cardinal Station, 215 Central Avenue, Louisville, KY 40208",
          "phone": "502-637-7678"
        }
      ]
    },
    "source_id": "facility_75",
    "source_file": ""
  },
  {
    "card_type": "entity",
    "entity_type": "MedicalProvider",
    "name": "UofL Health – Sports Medicine Urgent Care",
    "attributes": {
      "parent_system": "",
      "location_count": 2,
      "locations": [
        {
          "location": "Main",
          "address": "UofL Health – Medical Center Southend, 5129 Dixie Highway, Suite 105, Louisville, KY 40216, 5-8 p.m. Monday-Friday",
          "phone": "502-588-4814"
        },
        {
          "location": "Main",
          "address": "UofL Health – Medical Center Northeast, 2401 Terra Crossing Boulevard, Suite 101, Louisville, KY 40245, 5-8 p.m. Monday-Friday | 9 a.m.-noon Saturday",
          "phone": "502-210-4602"
        }
      ]
    },
    "source_id": "facility_76",
    "source_file": ""
  },
  {
    "card_type": "entity",
    "entity_type": "MedicalProvider",
    "name": "UofL Health – Trager Transplant Center",
    "attributes": {
      "parent_system": "",
      "location_count": 1,
      "locations": [
        {
          "location": "Main",
          "address": "UofL Health – Frazier Rehabilitation Institute, 220 Abraham Flexner Way, 3rd Floor, Louisville, KY 40202",
          "phone": "502-587-4939"
        }
      ]
    },
    "source_id": "facility_77",
    "source_file": ""
  },
  {
    "card_type": "entity",
    "entity_type": "MedicalProvider",
    "name": "UofL Health – UofL Hospital",
    "attributes": {
      "parent_system": "",
      "location_count": 1,
      "locations": [
        {
          "location": "Main",
          "address": "530 South Jackson Street, Louisville, KY 40202",
          "phone": "502-562-3000"
        }
      ]
    },
    "source_id": "facility_78",
    "source_file": ""
  },
  {
    "card_type": "entity",
    "entity_type": "MedicalProvider",
    "name": "UofL Health – UofL Hospital – Advanced Bariatrics and Medical Weight Management",
    "attributes": {
      "parent_system": "",
      "location_count": 1,
      "locations": [
        {
          "location": "Main",
          "address": "UofL Health – UofL Hospital – Advanced Bariatrics & Medical Weight Management Clinic, UofL Health – Chestnut Street Outpatient Center, 401 E. Chestnut Street, Suite 180, Louisville, KY 40202",
          "phone": "502-588-4790"
        }
      ]
    },
    "source_id": "facility_79",
    "source_file": ""
  },
  {
    "card_type": "entity",
    "entity_type": "MedicalProvider",
    "name": "UofL Health – UofL Hospital – Bone Health Clinic",
    "attributes": {
      "parent_system": "",
      "location_count": 1,
      "locations": [
        {
          "location": "Main",
          "address": "UofL Health – UofL Hospital – Multi-Specialty Clinic, UofL Health – Chestnut Street Outpatient Center, 401 East Chestnut Street, Suite 550, Louisville, KY 40202",
          "phone": "502-588-0425"
        }
      ]
    },
    "source_id": "facility_80",
    "source_file": ""
  },
  {
    "card_type": "entity",
    "entity_type": "MedicalProvider",
    "name": "UofL Health – UofL Hospital – Burn Clinic",
    "attributes": {
      "parent_system": "",
      "location_count": 1,
      "locations": [
        {
          "location": "Main",
          "address": "UofL Health – UofL Hospital – Multi-Specialty Clinic, UofL Health – Chestnut Street Outpatient Center, 401 East Chestnut Street, Suite 550, Louisville, KY 40202",
          "phone": "502-588-0425"
        }
      ]
    },
    "source_id": "facility_81",
    "source_file": ""
  },
  {
    "card_type": "entity",
    "entity_type": "MedicalProvider",
    "name": "UofL Health – UofL Hospital – Cystic Fibrosis Clinic",
    "attributes": {
      "parent_system": "",
      "location_count": 1,
      "locations": [
        {
          "location": "Main",
          "address": "401 East Chestnut Street, Suite 480, Louisville, KY 40202",
          "phone": "502-217-1702"
        }
      ]
    },
    "source_id": "facility_82",
    "source_file": ""
  },
  {
    "card_type": "entity",
    "entity_type": "MedicalProvider",
    "name": "UofL Health – UofL Hospital – Inflammatory Bowel Disease",
    "attributes": {
      "parent_system": "",
      "location_count": 1,
      "locations": [
        {
          "location": "Main",
          "address": "UofL Health – UofL Hospital – Multi-Specialty Clinic, UofL Health – Chestnut Street Outpatient Center, 401 East Chestnut Street, Suite 550, Louisville, KY 40202",
          "phone": "502-588-0425"
        }
      ]
    },
    "source_id": "facility_83",
    "source_file": ""
  },
  {
    "card_type": "entity",
    "entity_type": "MedicalProvider",
    "name": "UofL Health – UofL Hospital – Interstitial Lung Disease/Pulmonary Fibrosis Clinic",
    "attributes": {
      "parent_system": "",
      "location_count": 1,
      "locations": [
        {
          "location": "Main",
          "address": "UofL Health – Chestnut Street Outpatient Center, 401 East Chestnut Street, Suite 480, Louisville, KY 40202",
          "phone": "502-217-1702"
        }
      ]
    },
    "source_id": "facility_84",
    "source_file": ""
  },
  {
    "card_type": "entity",
    "entity_type": "MedicalProvider",
    "name": "UofL Health – UofL Hospital – Multi-Specialty Clinic",
    "attributes": {
      "parent_system": "",
      "location_count": 1,
      "locations": [
        {
          "location": "Main",
          "address": "UofL Health – Chestnut Street Outpatient Center, 401 East Chestnut Street, Suite 550, Louisville, KY 40202",
          "phone": "502-588-0425"
        }
      ]
    },
    "source_id": "facility_85",
    "source_file": ""
  },
  {
    "card_type": "entity",
    "entity_type": "MedicalProvider",
    "name": "UofL Health – UofL Hospital – Outpatient Rehab",
    "attributes": {
      "parent_system": "",
      "location_count": 1,
      "locations": [
        {
          "location": "Main",
          "address": "UofL Health – Chestnut Street Outpatient Center, 401 East Chestnut Street, Suite 270, Louisville, KY 40202",
          "phone": "502-562-3457"
        }
      ]
    },
    "source_id": "facility_86",
    "source_file": ""
  },
  {
    "card_type": "entity",
    "entity_type": "MedicalProvider",
    "name": "UofL Health – UofL Hospital – Rheumatology",
    "attributes": {
      "parent_system": "",
      "location_count": 1,
      "locations": [
        {
          "location": "Main",
          "address": "UofL Health – UofL Hospital – Multi-Specialty Clinic, UofL Health – Chestnut Street Outpatient Center, 401 East Chestnut Street, Suite 550, Louisville, KY 40202",
          "phone": "502-588-0425"
        }
      ]
    },
    "source_id": "facility_87",
    "source_file": ""
  },
  {
    "card_type": "entity",
    "entity_type": "MedicalProvider",
    "name": "UofL Health – UofL Hospital Emergency Room",
    "attributes": {
      "parent_system": "",
      "location_count": 1,
      "locations": [
        {
          "location": "Main",
          "address": "530 South Jackson Street, Louisville, KY 40202",
          "phone": "502-562-3015"
        }
      ]
    },
    "source_id": "facility_88",
    "source_file": ""
  },
  {
    "card_type": "entity",
    "entity_type": "MedicalProvider",
    "name": "UofL Health – Urgent Care Plus – Buechel",
    "attributes": {
      "parent_system": "",
      "location_count": 1,
      "locations": [
        {
          "location": "Main",
          "address": "4423 Bardstown Road, Louisville, KY 40218",
          "phone": "502-749-7909"
        }
      ]
    },
    "source_id": "facility_89",
    "source_file": ""
  },
  {
    "card_type": "entity",
    "entity_type": "MedicalProvider",
    "name": "UofL Health – Urgent Care Plus – Cedar Grove",
    "attributes": {
      "parent_system": "",
      "location_count": 1,
      "locations": [
        {
          "location": "Main",
          "address": "1707 Cedar Grove Road, Suite 10, Shepherdsville, KY 40165, Urgent Care: 502-815-7890 | Occupational Medicine: 502-543-3246",
          "phone": ""
        }
      ]
    },
    "source_id": "facility_90",
    "source_file": ""
  },
  {
    "card_type": "entity",
    "entity_type": "MedicalProvider",
    "name": "UofL Health – Urgent Care Plus – Hurstbourne Corners",
    "attributes": {
      "parent_system": "",
      "location_count": 1,
      "locations": [
        {
          "location": "Main",
          "address": "9409 Shelbyville Road, Suite 104, Louisville, KY 40222",
          "phone": "502-588-0740"
        }
      ]
    },
    "source_id": "facility_91",
    "source_file": ""
  },
  {
    "card_type": "entity",
    "entity_type": "MedicalProvider",
    "name": "UofL Health – Urgent Care Plus – Medical Center Northeast",
    "attributes": {
      "parent_system": "",
      "location_count": 1,
      "locations": [
        {
          "location": "Main",
          "address": "2401 Terra Crossing Boulevard, Suite 100, Louisville, KY 40245",
          "phone": "502-588-0746"
        }
      ]
    },
    "source_id": "facility_92",
    "source_file": ""
  },
  {
    "card_type": "entity",
    "entity_type": "MedicalProvider",
    "name": "UofL Health – Urgent Care Plus – Medical Center Southend",
    "attributes": {
      "parent_system": "",
      "location_count": 1,
      "locations": [
        {
          "location": "Main",
          "address": "UofL Health – Medical Center Southend, 5129 Dixie Highway, Suite 102, Louisville, KY 40216",
          "phone": "502-588-0410"
        }
      ]
    },
    "source_id": "facility_93",
    "source_file": ""
  },
  {
    "card_type": "entity",
    "entity_type": "MedicalProvider",
    "name": "UofL Health – Urgent Care Plus – Parkland",
    "attributes": {
      "parent_system": "",
      "location_count": 1,
      "locations": [
        {
          "location": "Main",
          "address": "2746 Virginia Avenue, Louisville, KY 40211",
          "phone": "502-815-7040"
        }
      ]
    },
    "source_id": "facility_94",
    "source_file": ""
  },
  {
    "card_type": "entity",
    "entity_type": "MedicalProvider",
    "name": "UofL Health – Urgent Care Plus – Taylorsville",
    "attributes": {
      "parent_system": "",
      "location_count": 1,
      "locations": [
        {
          "location": "Main",
          "address": "847 Taylorsville Road, Taylorsville, KY 40071",
          "phone": "502-588-8705"
        }
      ]
    },
    "source_id": "facility_95",
    "source_file": ""
  },
  {
    "card_type": "entity",
    "entity_type": "MedicalProvider",
    "name": "UofL Health – Women’s Center",
    "attributes": {
      "parent_system": "",
      "location_count": 1,
      "locations": [
        {
          "location": "Main",
          "address": "UofL Health – Mary & Elizabeth Hospital, Medical Plaza 1, 4402 Churchman Avenue, Suite 101, Louisville, KY 40215, Office: 502-361-6758 | Scheduling: 502-681-1405",
          "phone": ""
        }
      ]
    },
    "source_id": "facility_96",
    "source_file": ""
  },
  {
    "card_type": "entity",
    "entity_type": "MedicalProvider",
    "name": "UofL Health – Wound Care",
    "attributes": {
      "parent_system": "",
      "location_count": 2,
      "locations": [
        {
          "location": "Main",
          "address": "UofL Health – Shelbyville Hospital, 727 Hospital Drive, Shelbyville, KY 40065",
          "phone": "502-647-4050"
        },
        {
          "location": "Main",
          "address": "UofL Health – Rudd Center, 201 Abraham Flexner Way, 6th Floor, Louisville, KY 40202",
          "phone": "502-561-3918"
        }
      ]
    },
    "source_id": "facility_97",
    "source_file": ""
  },
  {
    "card_type": "entity",
    "entity_type": "MedicalProvider",
    "name": "UofL Health – Wound Care and Hyperbaric Medicine",
    "attributes": {
      "parent_system": "",
      "location_count": 1,
      "locations": [
        {
          "location": "Main",
          "address": "UofL Health – Mary & Elizabeth Hospital, Medical Plaza 1, 4402 Churchman Avenue, Suite 102, Louisville, KY 40215",
          "phone": "502-992-7689"
        }
      ]
    },
    "source_id": "facility_98",
    "source_file": ""
  },
  {
    "card_type": "entity",
    "entity_type": "MedicalProvider",
    "name": "UofL Physicians – Advanced Heart Failure Therapies, VAD & Heart Transplant",
    "attributes": {
      "parent_system": "",
      "location_count": 1,
      "locations": [
        {
          "location": "Main",
          "address": "UofL Health – Heart Hospital, at Jewish Hospital, UofL Health – Rudd Center, 201 Abraham Flexner Way, Suite 1001, Louisville, KY 40202",
          "phone": "502-587-2883"
        }
      ]
    },
    "source_id": "facility_99",
    "source_file": ""
  },
  {
    "card_type": "entity",
    "entity_type": "MedicalProvider",
    "name": "UofL Physicians – Anesthesiology",
    "attributes": {
      "parent_system": "",
      "location_count": 3,
      "locations": [
        {
          "location": "Main",
          "address": "UofL Health – Jewish Hospital, 200 Abraham Flexner Way, Louisville, KY 40202",
          "phone": "502-569-7983"
        },
        {
          "location": "Main",
          "address": "UofL Health – Mary & Elizabeth Hospital, 1850 Bluegrass Avenue, Louisville, KY 40215",
          "phone": "502-361-6000"
        },
        {
          "location": "Main",
          "address": "UofL Health – UofL Hospital, 530 South Jackson Street, Louisville, KY 40202",
          "phone": "502-562-3000"
        }
      ]
    },
    "source_id": "facility_100",
    "source_file": ""
  },
  {
    "card_type": "entity",
    "entity_type": "MedicalProvider",
    "name": "UofL Physicians – Anesthesiology Associates",
    "attributes": {
      "parent_system": "",
      "location_count": 2,
      "locations": [
        {
          "location": "Main",
          "address": "UofL Health – Medical Center East, 3920 Dutchmans Lane, Louisville, KY 40207",
          "phone": "502-259-6000"
        },
        {
          "location": "Main",
          "address": "UofL Health – South Hospital, 1903 West Hebron Lane, Shepherdsville, KY 40165",
          "phone": "502-955-3000"
        }
      ]
    },
    "source_id": "facility_101",
    "source_file": ""
  },
  {
    "card_type": "entity",
    "entity_type": "MedicalProvider",
    "name": "UofL Physicians – Benign Hematology",
    "attributes": {
      "parent_system": "",
      "location_count": 1,
      "locations": [
        {
          "location": "Main",
          "address": "UofL Health – Brown Cancer Center – Downtown, 529 South Jackson Street, Louisville, KY 40202",
          "phone": "502-562-4370"
        }
      ]
    },
    "source_id": "facility_102",
    "source_file": ""
  },
  {
    "card_type": "entity",
    "entity_type": "MedicalProvider",
    "name": "UofL Physicians – Cardiology",
    "attributes": {
      "parent_system": "",
      "location_count": 4,
      "locations": [
        {
          "location": "Main",
          "address": "Springs Medical Center, 6420 New Dutchmans Pkwy, Suite 180, Louisville, KY 40205",
          "phone": "502-588-7010"
        },
        {
          "location": "Main",
          "address": "2746 Virginia Avenue, Louisville, KY 40211",
          "phone": "502-588-7010"
        },
        {
          "location": "Main",
          "address": "UofL Health – Medical Center Northeast, 2401 Terra Crossing Boulevard, Suite 406, Louisville, KY 40245",
          "phone": "502-588-7010"
        },
        {
          "location": "Main",
          "address": "UofL Health – Heart Hospital, A Part of Jewish Hospital, UofL Health – Rudd Center, 201 Abraham Flexner Way, Suite 902, Louisville, KY 40202",
          "phone": "502-588-7010"
        }
      ]
    },
    "source_id": "facility_103",
    "source_file": ""
  },
  {
    "card_type": "entity",
    "entity_type": "MedicalProvider",
    "name": "UofL Physicians – Cardiology Associates",
    "attributes": {
      "parent_system": "",
      "location_count": 23,
      "locations": [
        {
          "location": "Main",
          "address": "1428 North Gardner Street, Scottsburg, IN 47170",
          "phone": "502-916-1055"
        },
        {
          "location": "Main",
          "address": "170 Dr. Arla Way, Suite 101, Louisville, KY 40299",
          "phone": "502-916-1055"
        },
        {
          "location": "Main",
          "address": "279 Kings Daughters Drive, Suite 204, Frankfort, KY 40601",
          "phone": "502-875-9885"
        },
        {
          "location": "Main",
          "address": "107 Lincoln Way, Suite 8, Bardstown, KY 40004",
          "phone": "502-331-9503"
        },
        {
          "location": "Main",
          "address": "UofL Health – Heart Hospital, at Jewish Hospital, UofL Health – Rudd Center, 201 Abraham Flexner Way, Suite 901, Louisville, KY 40202",
          "phone": "502-916-1055"
        },
        {
          "location": "Main",
          "address": "UofL Health – Mary & Elizabeth Hospital, Medical Plaza 2, 1900 Bluegrass Avenue, Suite 103, Louisville, KY 40215",
          "phone": "502-367-4500"
        },
        {
          "location": "Main",
          "address": "UofL Health – Abraham Flexner Outpatient Center, 225 Abraham Flexner Way, Suite 305, Louisville, KY 40202",
          "phone": "502-585-4321"
        },
        {
          "location": "Main",
          "address": "UofL Health – Mary & Elizabeth Hospital, Medical Plaza 1, 4402 Churchman Avenue, Suite 205, Louisville, KY 40215",
          "phone": "502-380-1214"
        },
        {
          "location": "Main",
          "address": "Medical Office Building, 720 Hospital Drive, Suite 206, Shelbyville, KY 40065",
          "phone": "502-647-5580"
        },
        {
          "location": "Main",
          "address": "UofL Health – Medical Center East, 3920 Dutchmans Lane, Suite 316, Louisville, KY 40207",
          "phone": "502-585-4321"
        },
        {
          "location": "Main",
          "address": "UofL Health – Medical Center East, 3920 Dutchmans Lane, Suite 317, Louisville, KY 40207",
          "phone": "502-581-1951"
        },
        {
          "location": "Main",
          "address": "914 North Dixie Highway, Suite 201, Elizabethtown, KY 42701",
          "phone": "502-581-1951"
        },
        {
          "location": "Main",
          "address": "UofL Health – Medical Center Northeast, 2401 Terra Crossing Boulevard, Suite 406, Louisville, KY 40245",
          "phone": "502-585-4321"
        },
        {
          "location": "Main",
          "address": "95 Kingswood Drive, Campbellsville, KY 42718",
          "phone": "270-789-2788"
        },
        {
          "location": "Main",
          "address": "UofL Health – Heart Hospital, A Part of Jewish Hospital, UofL Health – Rudd Center, 201 Abraham Flexner Way, Suite 1101, Louisville, KY 40202",
          "phone": "502-581-1951"
        },
        {
          "location": "Main",
          "address": "5100 Outer Loop, Louisville, KY 40219",
          "phone": "502-581-1951"
        },
        {
          "location": "Main",
          "address": "UofL Health – South Hospital, Medical Plaza 1, 1905 W. Hebron Lane, Suite 104, Shepherdsville, KY 40165",
          "phone": "502-581-1951"
        },
        {
          "location": "Main",
          "address": "UofL Health – Heart Hospital, at Jewish Hospital, UofL Health – Rudd Center, 201 Abraham Flexner Way, Suite 903, Louisville, KY 40202",
          "phone": "502-916-1055"
        },
        {
          "location": "Main",
          "address": "8111 Bardstown Road, Louisville, KY 40291",
          "phone": "502-581-1951"
        },
        {
          "location": "Main",
          "address": "213 Hunter Station Road, Sellersburg, IN 47172",
          "phone": "812-248-2560"
        },
        {
          "location": "Main",
          "address": "UofL Health – Medical Center Southend, 5129 Dixie Highway, Louisville, KY 40216",
          "phone": "502-585-4321"
        },
        {
          "location": "Main",
          "address": "3066 Campbellsville Road, Columbia, KY 42728",
          "phone": "502-367-4500"
        },
        {
          "location": "Main",
          "address": "UofL Health – Heart Hospital, A Part of Jewish Hospital, UofL Health – Rudd Center, 201 Abraham Flexner Way, Suite 1105, Louisville, KY 40202",
          "phone": "502-367-4500"
        }
      ]
    },
    "source_id": "facility_104",
    "source_file": ""
  },
  {
    "card_type": "entity",
    "entity_type": "MedicalProvider",
    "name": "UofL Physicians – Cardiovascular and Thoracic Surgery",
    "attributes": {
      "parent_system": "",
      "location_count": 2,
      "locations": [
        {
          "location": "Main",
          "address": "UofL Health – Heart Hospital, at Jewish Hospital, UofL Health – Rudd Center, 201 Abraham Flexner Way, Suite 1200, Louisville, KY 40202",
          "phone": "502-588-7600"
        },
        {
          "location": "Main",
          "address": "UofL Health – Medical Center East, 3920 Dutchmans Lane, Suite 301, Louisville, KY 40207",
          "phone": "502-588-7600"
        }
      ]
    },
    "source_id": "facility_105",
    "source_file": ""
  },
  {
    "card_type": "entity",
    "entity_type": "MedicalProvider",
    "name": "UofL Physicians – Certified Nurse Midwife Program",
    "attributes": {
      "parent_system": "",
      "location_count": 1,
      "locations": [
        {
          "location": "Main",
          "address": "UofL Health – Center for Women’s Health, UofL Health – Mary & Elizabeth Hospital, Medical Plaza 3, 4500 Churchman Avenue, Suite 300, Louisville, KY 40215",
          "phone": "502-977-5907"
        }
      ]
    },
    "source_id": "facility_106",
    "source_file": ""
  },
  {
    "card_type": "entity",
    "entity_type": "MedicalProvider",
    "name": "UofL Physicians – Colon & Rectal Surgery",
    "attributes": {
      "parent_system": "",
      "location_count": 3,
      "locations": [
        {
          "location": "Main",
          "address": "UofL Health – Chestnut Street Outpatient Center, 401 East Chestnut Street, Suite 710, Louisville, KY 40202",
          "phone": "502-583-8303"
        },
        {
          "location": "Main",
          "address": "UofL Health – Medical Center Northeast, 2401 Terra Crossing Boulevard, Suite 401, Louisville, KY 40245",
          "phone": "502-583-8303"
        },
        {
          "location": "Main",
          "address": "UofL Health – Chestnut Street Outpatient Center, 401 East Chestnut Street, Suite 470, Louisville, KY 40202",
          "phone": "502-583-8303"
        }
      ]
    },
    "source_id": "facility_107",
    "source_file": ""
  },
  {
    "card_type": "entity",
    "entity_type": "MedicalProvider",
    "name": "UofL Physicians – Colorectal Surgery",
    "attributes": {
      "parent_system": "",
      "location_count": 1,
      "locations": [
        {
          "location": "Main",
          "address": "UofL Health – Medical Center East, 3920 Dutchmans Lane, Suite 302, Louisville, KY 40207",
          "phone": "502-583-8303"
        }
      ]
    },
    "source_id": "facility_108",
    "source_file": ""
  },
  {
    "card_type": "entity",
    "entity_type": "MedicalProvider",
    "name": "UofL Physicians – Digestive & Liver Health",
    "attributes": {
      "parent_system": "",
      "location_count": 2,
      "locations": [
        {
          "location": "Main",
          "address": "UofL Health – Chestnut Street Outpatient Center, 401 East Chestnut Street, Suite 310, Louisville, KY 40202",
          "phone": "502-588-4600"
        },
        {
          "location": "Main",
          "address": "UofL Health – Mary & Elizabeth Hospital, Medical Plaza 1, 4402 Churchman Avenue, Suite 400, Louisville, KY 40215",
          "phone": "502-588-7690"
        }
      ]
    },
    "source_id": "facility_109",
    "source_file": ""
  },
  {
    "card_type": "entity",
    "entity_type": "MedicalProvider",
    "name": "UofL Physicians – Ear, Nose & Throat",
    "attributes": {
      "parent_system": "",
      "location_count": 10,
      "locations": [
        {
          "location": "Main",
          "address": "Medical Office Building, 720 Hospital Drive, Suite 100, Shelbyville, KY 40065",
          "phone": "502-588-4410"
        },
        {
          "location": "Main",
          "address": "UofL Health – Chestnut Street Outpatient Center, 401 East Chestnut Street, Suite 170, Louisville, KY 40202",
          "phone": "502-588-4410"
        },
        {
          "location": "Main",
          "address": "UofL Health – Medical Center East, 3920 Dutchmans Lane, Suite 308, Louisville, KY 40207",
          "phone": "502-588-4410"
        },
        {
          "location": "Main",
          "address": "4612 Chamberlain Lane, Suite 204, Louisville, KY 40241",
          "phone": "502-425-5556"
        },
        {
          "location": "Main",
          "address": "UofL Health – South Hospital, Medical Plaza 2, 1868 W. Hebron Lane, Suite 301, Shepherdsville, KY 40165",
          "phone": "502-425-5556"
        },
        {
          "location": "Main",
          "address": "2400 Eastpoint Parkway, Suite 560, Louisville, KY 40223",
          "phone": "502-893-3342"
        },
        {
          "location": "Main",
          "address": "4003 Kresge Way, Suite 227, Louisville, KY 40207",
          "phone": "502-893-3342"
        },
        {
          "location": "Main",
          "address": "UofL Health – Medical Center Northeast, 2401 Terra Crossing Boulevard, Suite 408, Louisville, KY 40245",
          "phone": "502-583-3687"
        },
        {
          "location": "Main",
          "address": "UofL Health – Chestnut Street Outpatient Center, 401 East Chestnut Street, Suite 170, Louisville, KY 40202",
          "phone": "502-583-3687"
        },
        {
          "location": "Main",
          "address": "UofL Health – Medical Center East, 3920 Dutchmans Lane, Suite 308, Louisville, KY 40207",
          "phone": "502-583-3687"
        }
      ]
    },
    "source_id": "facility_110",
    "source_file": ""
  },
  {
    "card_type": "entity",
    "entity_type": "MedicalProvider",
    "name": "UofL Physicians – Endocrine & Diabetes Associates",
    "attributes": {
      "parent_system": "",
      "location_count": 3,
      "locations": [
        {
          "location": "Main",
          "address": "Springs Medical Center, 6400 Dutchmans Parkway, Suite 345, Louisville, KY 40205",
          "phone": "502-587-6010"
        },
        {
          "location": "Main",
          "address": "UofL Health – Mary & Elizabeth Hospital, Medical Plaza 2, 1900 Bluegrass Avenue, Suite 108, Louisville, KY 40215",
          "phone": "502-361-2524"
        },
        {
          "location": "Main",
          "address": "330 Townepark Circle, Suite 100, Louisville, KY 40243",
          "phone": "502-245-8988"
        }
      ]
    },
    "source_id": "facility_111",
    "source_file": ""
  },
  {
    "card_type": "entity",
    "entity_type": "MedicalProvider",
    "name": "UofL Physicians – Endocrine Surgery and Surgical Oncology",
    "attributes": {
      "parent_system": "",
      "location_count": 2,
      "locations": [
        {
          "location": "Main",
          "address": "Springs Medical Center, 6400 Dutchmans Parkway, Suite 345, Louisville, KY 40205",
          "phone": "502-583-8303"
        },
        {
          "location": "Main",
          "address": "UofL Health – Chestnut Street Outpatient Center, 401 East Chestnut Street, Suite 710, Louisville, KY 40202",
          "phone": "502-583-8303"
        }
      ]
    },
    "source_id": "facility_112",
    "source_file": ""
  },
  {
    "card_type": "entity",
    "entity_type": "MedicalProvider",
    "name": "UofL Physicians – Endocrine Surgery Associates",
    "attributes": {
      "parent_system": "",
      "location_count": 1,
      "locations": [
        {
          "location": "Main",
          "address": "UofL Health – Chestnut Street Outpatient Center, 401 East Chestnut Street, Suite 240, Louisville, KY 40202",
          "phone": "502-815-7830"
        }
      ]
    },
    "source_id": "facility_113",
    "source_file": ""
  },
  {
    "card_type": "entity",
    "entity_type": "MedicalProvider",
    "name": "UofL Physicians – Endocrinology",
    "attributes": {
      "parent_system": "",
      "location_count": 1,
      "locations": [
        {
          "location": "Main",
          "address": "UofL Health – Chestnut Street Outpatient Center, 401 East Chestnut Street, Suite 310, Louisville, KY 40202",
          "phone": "502-588-4600"
        }
      ]
    },
    "source_id": "facility_114",
    "source_file": ""
  },
  {
    "card_type": "entity",
    "entity_type": "MedicalProvider",
    "name": "UofL Physicians – Eye Specialists",
    "attributes": {
      "parent_system": "",
      "location_count": 4,
      "locations": [
        {
          "location": "Main",
          "address": "Elizabethtown Health Center, 1239 Woodland Drive, Suite 114, Elizabethtown, KY 42701",
          "phone": "270-506-4087"
        },
        {
          "location": "Main",
          "address": "2580 Michigan Road, Suite 2, Madison, IN 47250",
          "phone": "502-588-0550"
        },
        {
          "location": "Main",
          "address": "Springs Medical Center, 6400 Dutchmans Parkway, Suite 310, Louisville, KY 40205",
          "phone": "502-742-2848"
        },
        {
          "location": "Main",
          "address": "Springs Medical Center, 6420 New Dutchmans Pkwy, Suite 175, Louisville, KY 40205",
          "phone": "502-588-0955"
        }
      ]
    },
    "source_id": "facility_115",
    "source_file": ""
  },
  {
    "card_type": "entity",
    "entity_type": "MedicalProvider",
    "name": "UofL Physicians – Facial Plastic & Reconstructive Surgery",
    "attributes": {
      "parent_system": "",
      "location_count": 1,
      "locations": [
        {
          "location": "Main",
          "address": "2429 Bush Ridge Drive, Suite 103, Louisville, KY 40245",
          "phone": "502-583-3687"
        }
      ]
    },
    "source_id": "facility_116",
    "source_file": ""
  },
  {
    "card_type": "entity",
    "entity_type": "MedicalProvider",
    "name": "UofL Physicians – Family Medicine",
    "attributes": {
      "parent_system": "",
      "location_count": 2,
      "locations": [
        {
          "location": "Main",
          "address": "UofL Health – Sports Medicine Institute, Cardinal Station, 215 Central Avenue, Suite 100, Louisville, KY 40208",
          "phone": "502-588-8700"
        },
        {
          "location": "Main",
          "address": "UofL Health – Mary & Elizabeth Hospital, Medical Plaza 1, 4402 Churchman Avenue, Suite 410, Louisville, KY 40215",
          "phone": "502-588-8720"
        }
      ]
    },
    "source_id": "facility_117",
    "source_file": ""
  },
  {
    "card_type": "entity",
    "entity_type": "MedicalProvider",
    "name": "UofL Physicians – Family Medicine Centers for Primary Care",
    "attributes": {
      "parent_system": "",
      "location_count": 1,
      "locations": [
        {
          "location": "Main",
          "address": "UofL Health – Sports Medicine Institute, Cardinal Station, 215 Central Avenue, Suite 100, Louisville, KY 40208",
          "phone": "502-588-8700"
        }
      ]
    },
    "source_id": "facility_118",
    "source_file": ""
  },
  {
    "card_type": "entity",
    "entity_type": "MedicalProvider",
    "name": "UofL Physicians – Gastroenterology Associates",
    "attributes": {
      "parent_system": "",
      "location_count": 4,
      "locations": [
        {
          "location": "Main",
          "address": "UofL Health – South Hospital, Medical Plaza 1, 1905 W. Hebron Lane, Suite 205, Shepherdsville, KY 40165",
          "phone": "502-955-1355"
        },
        {
          "location": "Main",
          "address": "UofL Health – Mary & Elizabeth Hospital, Medical Plaza 1, 4402 Churchman Avenue, Suite 201, Louisville, KY 40215",
          "phone": "502-416-0207"
        },
        {
          "location": "Main",
          "address": "UofL Health – Shelbyville Hospital, 720 Hospital Drive, Suite 106, Shelbyville, KY 40065",
          "phone": "502-895-8970"
        },
        {
          "location": "Main",
          "address": "UofL Health – Medical Center East, 3920 Dutchmans Lane, Suite 300, Louisville, KY 40207",
          "phone": "502-895-8970"
        }
      ]
    },
    "source_id": "facility_119",
    "source_file": ""
  },
  {
    "card_type": "entity",
    "entity_type": "MedicalProvider",
    "name": "UofL Physicians – Gender Affirming Care",
    "attributes": {
      "parent_system": "",
      "location_count": 1,
      "locations": [
        {
          "location": "Main",
          "address": "UofL Health – Chestnut Street Outpatient Center, 401 E. Chestnut St., Suite 370, Louisville, KY 40202",
          "phone": "502-588-4400"
        }
      ]
    },
    "source_id": "facility_120",
    "source_file": ""
  },
  {
    "card_type": "entity",
    "entity_type": "MedicalProvider",
    "name": "UofL Physicians – General Surgery",
    "attributes": {
      "parent_system": "",
      "location_count": 2,
      "locations": [
        {
          "location": "Main",
          "address": "UofL Health – Chestnut Street Outpatient Center, 401 East Chestnut Street, Suite 710, Louisville, KY 40202",
          "phone": "502-583-8303"
        },
        {
          "location": "Main",
          "address": "UofL Health – Jackson Street Outpatient Center, 550 South Jackson Street, 2nd Floor, Louisville, KY 40202",
          "phone": "502-583-8303"
        }
      ]
    },
    "source_id": "facility_121",
    "source_file": ""
  },
  {
    "card_type": "entity",
    "entity_type": "MedicalProvider",
    "name": "UofL Physicians – Gynecologic Oncology",
    "attributes": {
      "parent_system": "",
      "location_count": 3,
      "locations": [
        {
          "location": "Main",
          "address": "UofL Health – Brown Cancer Center – Downtown, 529 South Jackson Street, Third Floor, Louisville, KY 40202",
          "phone": "502-561-7220"
        },
        {
          "location": "Main",
          "address": "UofL Health – Brown Cancer Center – Northeast, UofL Health – Medical Center Northeast, 2401 Terra Crossing Boulevard, Suite 408, Louisville, KY 40245",
          "phone": "502-561-7220"
        },
        {
          "location": "Main",
          "address": "UofL Health – Center for Women’s Health, UofL Health – Mary & Elizabeth Hospital, Medical Plaza 3, 4500 Churchman Avenue, Suite 202, Louisville, KY 40215",
          "phone": "502-561-7220"
        }
      ]
    },
    "source_id": "facility_122",
    "source_file": ""
  },
  {
    "card_type": "entity",
    "entity_type": "MedicalProvider",
    "name": "UofL Physicians – Gynecologic Oncology Associates",
    "attributes": {
      "parent_system": "",
      "location_count": 2,
      "locations": [
        {
          "location": "Main",
          "address": "UofL Health – Brown Cancer Center – Downtown, 529 South Jackson Street, Louisville, KY 40202",
          "phone": "502-308-1290"
        },
        {
          "location": "Main",
          "address": "UofL Health – South Hospital, Medical Plaza 1, 1905 W. Hebron Lane, Suite 202, Shepherdsville, KY 40165",
          "phone": "502-308-1290"
        }
      ]
    },
    "source_id": "facility_123",
    "source_file": ""
  },
  {
    "card_type": "entity",
    "entity_type": "MedicalProvider",
    "name": "UofL Physicians – Hearing & Balance",
    "attributes": {
      "parent_system": "",
      "location_count": 3,
      "locations": [
        {
          "location": "Main",
          "address": "UofL Health – Medical Center East, 3920 Dutchmans Lane, Suite 308, Louisville, KY 40207",
          "phone": "502-583-3687"
        },
        {
          "location": "Main",
          "address": "UofL Physicians – Louisville Center for Voice Care, 9931 Forest Green Boulevard, Louisville, KY 40223",
          "phone": "502-583-3687"
        },
        {
          "location": "Main",
          "address": "UofL Health – Chestnut Street Outpatient Center, 401 East Chestnut Street, Suite 170, Louisville, KY 40202",
          "phone": "502-583-3687"
        }
      ]
    },
    "source_id": "facility_124",
    "source_file": ""
  },
  {
    "card_type": "entity",
    "entity_type": "MedicalProvider",
    "name": "UofL Physicians – Hemophilia Treatment Center",
    "attributes": {
      "parent_system": "",
      "location_count": 1,
      "locations": [
        {
          "location": "Main",
          "address": "UofL Health – Medical Center Northeast, 2401 Terra Crossing Boulevard, Suite 202, Louisville, KY 40245",
          "phone": "502-210-4301"
        }
      ]
    },
    "source_id": "facility_125",
    "source_file": ""
  },
  {
    "card_type": "entity",
    "entity_type": "MedicalProvider",
    "name": "UofL Physicians – Infectious Diseases",
    "attributes": {
      "parent_system": "",
      "location_count": 4,
      "locations": [
        {
          "location": "Main",
          "address": "UofL Health – Jackson Street Outpatient Center, 550 South Jackson Street, Louisville, KY 40202",
          "phone": "502-561-8844"
        },
        {
          "location": "Main",
          "address": "UofL Health – Chestnut Street Outpatient Center, 401 E. Chestnut Street, Suite 690, Louisville, KY 40202",
          "phone": "502-588-4710"
        },
        {
          "location": "Main",
          "address": "UofL Health – Rudd Center, 201 Abraham Flexner Way, Suite 903, Louisville, KY 40202",
          "phone": "502-815-9600"
        },
        {
          "location": "Main",
          "address": "UofL Health – South Hospital, Medical Plaza 1, 1905 West Hebron Lane, Suite 201, Shepherdsville, KY 40165",
          "phone": "502-588-4710"
        }
      ]
    },
    "source_id": "facility_126",
    "source_file": ""
  },
  {
    "card_type": "entity",
    "entity_type": "MedicalProvider",
    "name": "UofL Physicians – Infectious Diseases – Bone & Joint",
    "attributes": {
      "parent_system": "",
      "location_count": 1,
      "locations": [
        {
          "location": "Main",
          "address": "UofL Health – Chestnut Street Outpatient Center, 401 East Chestnut Street, Suite 690, Louisville, KY 40202, 8:00 a.m.-12 p.m. Thursday-Friday",
          "phone": "502-588-4710"
        }
      ]
    },
    "source_id": "facility_127",
    "source_file": ""
  },
  {
    "card_type": "entity",
    "entity_type": "MedicalProvider",
    "name": "UofL Physicians – Internal Medicine",
    "attributes": {
      "parent_system": "",
      "location_count": 1,
      "locations": [
        {
          "location": "Main",
          "address": "UofL Health – Chestnut Street Outpatient Center, Ambulatory Internal Medicine (Resident Clinic), 401 East Chestnut Street, Suite 310, Louisville, KY 40202",
          "phone": "502-588-4720"
        }
      ]
    },
    "source_id": "facility_128",
    "source_file": ""
  },
  {
    "card_type": "entity",
    "entity_type": "MedicalProvider",
    "name": "UofL Physicians – Kleinert Kutz Hand Care",
    "attributes": {
      "parent_system": "",
      "location_count": 4,
      "locations": [
        {
          "location": "Main",
          "address": "Chamberlain Pointe Office, 4642 Chamberlain Lane, Suite 202, Louisville, KY 40241",
          "phone": "502-561-4200"
        },
        {
          "location": "Main",
          "address": "East Louisville Office, 4010 Dupont Circle, Suite 308B, Louisville, KY 40207",
          "phone": "502-561-4200"
        },
        {
          "location": "Main",
          "address": "Downtown Louisville Office, UofL Health – Abraham Flexner Outpatient Center, 225 Abraham Flexner Way, Suite 700, Louisville, KY 40202",
          "phone": "502-561-4200"
        },
        {
          "location": "Main",
          "address": "New Albany Office, 3605 Northgate Court, Suite 102, New Albany, IN 47150",
          "phone": "502-561-4200"
        }
      ]
    },
    "source_id": "facility_129",
    "source_file": ""
  },
  {
    "card_type": "entity",
    "entity_type": "MedicalProvider",
    "name": "UofL Physicians – Louisville Center for Voice Care",
    "attributes": {
      "parent_system": "",
      "location_count": 1,
      "locations": [
        {
          "location": "Main",
          "address": "9931 Forest Green Boulevard, Louisville, KY 40223",
          "phone": "502-588-3305"
        }
      ]
    },
    "source_id": "facility_130",
    "source_file": ""
  },
  {
    "card_type": "entity",
    "entity_type": "MedicalProvider",
    "name": "UofL Physicians – Louisville Surgical Associates",
    "attributes": {
      "parent_system": "",
      "location_count": 5,
      "locations": [
        {
          "location": "Main",
          "address": "130 Stonecrest Court, Suite 106, Shelbyville, KY 40065",
          "phone": "502-633-6062"
        },
        {
          "location": "Main",
          "address": "UofL Health – Mary & Elizabeth Hospital, Medical Plaza 1, 4402 Churchman Avenue, Suite 202, Louisville, KY 40215",
          "phone": "502-366-1090"
        },
        {
          "location": "Main",
          "address": "3605 Northgate Court, Suite 102, New Albany, IN 47150",
          "phone": "502-366-1090"
        },
        {
          "location": "Main",
          "address": "UofL Health – Medical Center East, 3920 Dutchmans Lane, Suite 302, Louisville, KY 40207",
          "phone": "502-366-1090"
        },
        {
          "location": "Main",
          "address": "UofL Health – South Hospital, Medical Plaza 1, 1905 W. Hebron Lane, Suite 206, Shepherdsville, KY 40165",
          "phone": "502-366-1090"
        }
      ]
    },
    "source_id": "facility_131",
    "source_file": ""
  },
  {
    "card_type": "entity",
    "entity_type": "MedicalProvider",
    "name": "UofL Physicians – Nephrology",
    "attributes": {
      "parent_system": "",
      "location_count": 8,
      "locations": [
        {
          "location": "Main",
          "address": "UofL Health – Medical Center Northeast, 2401 Terra Crossing Boulevard, Suite 408, Louisville, KY 40245",
          "phone": "502-588-4710"
        },
        {
          "location": "Main",
          "address": "UofL Health – Chestnut Street Outpatient Center, 401 East Chestnut Street, Suite 690, Louisville, KY 40202",
          "phone": "502-588-4710"
        },
        {
          "location": "Main",
          "address": "University Kidney Center - Chestnut, 614 East Chestnut Street, Louisville, KY 40202",
          "phone": "502-589-5997"
        },
        {
          "location": "Main",
          "address": "UofL Health – Mary & Elizabeth Hospital, Medical Plaza 1, 4402 Churchman Avenue, Suite 400, Louisville, KY 40215",
          "phone": "502-588-4710"
        },
        {
          "location": "Main",
          "address": "University Kidney Center - Bluegrass, 1935 Bluegrass Avenue, Louisville, KY 40215",
          "phone": "502-368-5843"
        },
        {
          "location": "Main",
          "address": "University Kidney Center - Hikes, 2271 Hikes Lane, Louisville, KY 40218",
          "phone": "502-459-5786"
        },
        {
          "location": "Main",
          "address": "University Kidney Center - Broadway, 2821 West Broadway, Louisville, KY 40211",
          "phone": "502-774-8516"
        },
        {
          "location": "Main",
          "address": "University Kidney Center – 3rd Street, 635 South 3rd Street, Louisville, KY 40202",
          "phone": "502-561-1316"
        }
      ]
    },
    "source_id": "facility_132",
    "source_file": ""
  },
  {
    "card_type": "entity",
    "entity_type": "MedicalProvider",
    "name": "UofL Physicians – Neurology",
    "attributes": {
      "parent_system": "",
      "location_count": 5,
      "locations": [
        {
          "location": "Main",
          "address": "UofL Health – Brain & Spine Institute, UofL Health – Medical Center Northeast, 2401 Terra Crossing Boulevard, Suite 400, Louisville, KY 40245",
          "phone": "502-588-4800"
        },
        {
          "location": "Main",
          "address": "UofL Health – Brain & Spine Institute, UofL Health – Chestnut Street Outpatient Center, 401 East Chestnut Street, Suite 510, Louisville, KY 40202",
          "phone": "502-588-4800"
        },
        {
          "location": "Main",
          "address": "UofL Health – Brain & Spine Institute, UofL Health – Frazier Rehabilitation Institute, 220 Abraham Flexner Way, Suite 606, Louisville, KY 40202",
          "phone": "502-588-4800"
        },
        {
          "location": "Main",
          "address": "UofL Health – Brain & Spine Institute, UofL Health – South Hospital, Medical Plaza 1, 1905 West Hebron Lane, Suite 201, Shepherdsville, KY 40165",
          "phone": "502-588-4800"
        },
        {
          "location": "Main",
          "address": "UofL Health – Brain & Spine Institute, UofL Health – Shelbyville Hospital, 731 Hospital Drive, Suite 2, Shelbyville, KY 40065",
          "phone": "502-588-4800"
        }
      ]
    },
    "source_id": "facility_133",
    "source_file": ""
  },
  {
    "card_type": "entity",
    "entity_type": "MedicalProvider",
    "name": "UofL Physicians – Neurology Associates",
    "attributes": {
      "parent_system": "",
      "location_count": 2,
      "locations": [
        {
          "location": "Main",
          "address": "UofL Health – Brain & Spine Institute, UofL Health – Medical Center Northeast, 2401 Terra Crossing Blvd., Suite 400, Louisville, KY 40245",
          "phone": "502-721-5899"
        },
        {
          "location": "Main",
          "address": "UofL Health – Brain & Spine Institute, Springs Medical Center, 6400 Dutchmans Parkway, Suite 140, Louisville, KY 40205",
          "phone": "502-721-5899"
        }
      ]
    },
    "source_id": "facility_134",
    "source_file": ""
  },
  {
    "card_type": "entity",
    "entity_type": "MedicalProvider",
    "name": "UofL Physicians – Neuropsychology Associates",
    "attributes": {
      "parent_system": "",
      "location_count": 1,
      "locations": [
        {
          "location": "Main",
          "address": "UofL Health – Brain & Spine Institute, UofL Health – Frazier Rehabilitation Institute, 220 Abraham Flexner Way, Louisville, KY 40202",
          "phone": "502-582-7484"
        }
      ]
    },
    "source_id": "facility_135",
    "source_file": ""
  },
  {
    "card_type": "entity",
    "entity_type": "MedicalProvider",
    "name": "UofL Physicians – Neurosurgery",
    "attributes": {
      "parent_system": "",
      "location_count": 5,
      "locations": [
        {
          "location": "Main",
          "address": "UofL Health – Brain & Spine Institute, UofL Health – Brown Cancer Center – Downtown, 529 South Jackson Street, Louisville, KY 40202",
          "phone": "502-588-2160"
        },
        {
          "location": "Main",
          "address": "UofL Health – Brain & Spine Institute, UofL Health – Medical Center East, 3920 Dutchmans Lane, Suite 306, Louisville, KY 40207",
          "phone": "502-588-2160"
        },
        {
          "location": "Main",
          "address": "UofL Health – Brain & Spine Institute, UofL Health – Abraham Flexner Outpatient Center, 225 Abraham Flexner Way, Suite 505, Louisville, KY 40202",
          "phone": "502-588-2160"
        },
        {
          "location": "Main",
          "address": "UofL Health – Brain & Spine Institute, UofL Health – Mary & Elizabeth Hospital, Medical Plaza 1, 4402 Churchman Avenue, Suite 400, Louisville, KY 40215",
          "phone": "502-588-2160"
        },
        {
          "location": "Main",
          "address": "UofL Health – Brain & Spine Institute, UofL Health – South Hospital, Medical Plaza 1, 1905 West Hebron Lane, Suite 201, Shepherdsville, KY 40165",
          "phone": "502-588-2160"
        }
      ]
    },
    "source_id": "facility_136",
    "source_file": ""
  },
  {
    "card_type": "entity",
    "entity_type": "MedicalProvider",
    "name": "UofL Physicians – OB/GYN & Women’s Health",
    "attributes": {
      "parent_system": "",
      "location_count": 4,
      "locations": [
        {
          "location": "Main",
          "address": "UofL Health – Chestnut Street Outpatient Center, 401 East Chestnut Street, Suites 410 & 470, Louisville, KY 40202",
          "phone": "502-588-4400"
        },
        {
          "location": "Main",
          "address": "UofL Health – South Hospital, Medical Plaza 1, 1905 W. Hebron Lane, Suite 206, Shepherdsville, KY 40165",
          "phone": "502-977-5907"
        },
        {
          "location": "Main",
          "address": "UofL Health – Center for Women’s Health, UofL Health – Mary & Elizabeth Hospital, Medical Plaza 3, 4500 Churchman Avenue, Suite 300, Louisville, KY 40215",
          "phone": "502-977-5907"
        },
        {
          "location": "Main",
          "address": "Carroll County Memorial Hospital, 309 11th Street, Carrollton, KY 41008",
          "phone": "502-977-5907"
        }
      ]
    },
    "source_id": "facility_137",
    "source_file": ""
  },
  {
    "card_type": "entity",
    "entity_type": "MedicalProvider",
    "name": "UofL Physicians – Orthopedics",
    "attributes": {
      "parent_system": "",
      "location_count": 19,
      "locations": [
        {
          "location": "Main",
          "address": "UofL Health – Medical Center Northeast, 2401 Terra Crossing Boulevard, Suite 350, Louisville, KY 40245",
          "phone": "502-588-3630"
        },
        {
          "location": "Main",
          "address": "UofL Health – Brain & Spine Institute, UofL Health – Mary & Elizabeth Hospital, Medical Plaza 1, 4402 Churchman Avenue, Suite 300, Louisville, KY 40215",
          "phone": "502-363-0588"
        },
        {
          "location": "Main",
          "address": "UofL Health – Rudd Center, 201 Abraham Flexner Way, Suite 100, Louisville, KY 40202",
          "phone": "502-588-3630"
        },
        {
          "location": "Main",
          "address": "UofL Health – Sports Medicine Institute, Cardinal Station, 215 Central Avenue, Suite 201, Louisville, KY 40208",
          "phone": "502-588-3630"
        },
        {
          "location": "Main",
          "address": "UofL Health – Brain & Spine Institute, UofL Health – Medical Center East, 3920 Dutchmans Lane, Suite 310, Louisville, KY 40207",
          "phone": "502-588-3630"
        },
        {
          "location": "Main",
          "address": "UofL Health – Shelbyville Hospital, 731 Hospital Drive, Suite 2, Shelbyville, KY 40065, 8:00 a.m.-5 p.m. Second and Fourth Tuesdays",
          "phone": "502-588-3630"
        },
        {
          "location": "Main",
          "address": "UofL Health – Medical Center Southend, 5129 Dixie Highway, Suite 105, Louisville, KY 40216",
          "phone": "502-588-4814"
        },
        {
          "location": "Main",
          "address": "2857 Charlestown Road, Suite 300, New Albany, IN 47150",
          "phone": "502-588-3630"
        },
        {
          "location": "Main",
          "address": "UofL Health – South Hospital, Medical Plaza 2, 1868 W. Hebron Lane, Suite 100, Shepherdsville, KY 40165",
          "phone": "502-955-3312"
        },
        {
          "location": "Main",
          "address": "847 Taylorsville Road, Taylorsville, KY 40071",
          "phone": "502-647-7708"
        },
        {
          "location": "Main",
          "address": "Springs Medical Center, 6420 New Dutchmans Pkwy, Suite 70, Louisville, KY 40207",
          "phone": "502-588-3630"
        },
        {
          "location": "Main",
          "address": "130 Stonecrest Road, Suite 106, Shelbyville, KY 40065",
          "phone": "502-647-7708"
        },
        {
          "location": "Main",
          "address": "UofL Health – Rudd Center, 201 Abraham Flexner Way, Suite 100, Louisville, KY 40202",
          "phone": "502-587-8222"
        },
        {
          "location": "Main",
          "address": "UofL Health – Medical Center Northeast, 2401 Terra Crossing Boulevard, Suite 101, Louisville, KY 40245",
          "phone": "502-210-4600"
        },
        {
          "location": "Main",
          "address": "UofL Health – Medical Center East, 3920 Dutchmans Lane, Suite 310, Louisville, KY 40207",
          "phone": "502-259-6888"
        },
        {
          "location": "Main",
          "address": "UofL Health – Mary & Elizabeth Hospital, Medical Plaza 1, 4402 Churchman Avenue, Suite 300, Louisville, KY 40215",
          "phone": "502-363-0588"
        },
        {
          "location": "Main",
          "address": "UofL Health – Sports Medicine Institute, Cardinal Station, 215 Central Avenue, Suite 201, Louisville, KY 40208",
          "phone": "502-637-7678"
        },
        {
          "location": "Main",
          "address": "UofL Health – Jackson Street Outpatient Center, 550 South Jackson Street, 1st Floor, Louisville, KY 40202",
          "phone": "502-588-3630"
        },
        {
          "location": "Main",
          "address": "Baptist Medical Pavilion, 4001 Kresge Way, Suite 132, Louisville, KY 40207",
          "phone": "502-588-4521"
        }
      ]
    },
    "source_id": "facility_138",
    "source_file": ""
  },
  {
    "card_type": "entity",
    "entity_type": "MedicalProvider",
    "name": "UofL Physicians – Outpatient Diagnostic Center",
    "attributes": {
      "parent_system": "",
      "location_count": 1,
      "locations": [
        {
          "location": "Main",
          "address": "UofL Health – Medical Center Southend, 5129 Dixie Highway, Louisville, KY 40216",
          "phone": "502-588-0340"
        }
      ]
    },
    "source_id": "facility_139",
    "source_file": ""
  },
  {
    "card_type": "entity",
    "entity_type": "MedicalProvider",
    "name": "UofL Physicians – Pain Management",
    "attributes": {
      "parent_system": "",
      "location_count": 2,
      "locations": [
        {
          "location": "Main",
          "address": "UofL Health – Mary & Elizabeth Hospital, Medical Plaza 4, 4331 Churchman Ave, Suite 101, Louisville, KY 40215",
          "phone": "502-815-7336"
        },
        {
          "location": "Main",
          "address": "1169 Eastern Parkway, Suite 2211, Louisville, KY 40217",
          "phone": "502-635-2775"
        }
      ]
    },
    "source_id": "facility_140",
    "source_file": ""
  },
  {
    "card_type": "entity",
    "entity_type": "MedicalProvider",
    "name": "UofL Physicians – Pain Management Associates",
    "attributes": {
      "parent_system": "",
      "location_count": 4,
      "locations": [
        {
          "location": "Main",
          "address": "UofL Health – Shelbyville Hospital, 720 Hospital Drive, Suite 100, Shelbyville, KY 40065",
          "phone": "502-974-5374"
        },
        {
          "location": "Main",
          "address": "UofL Health – Medical Center Northeast, 2401 Terra Crossing Boulevard, Suite 409, Louisville, KY 40245",
          "phone": "502-815-7336"
        },
        {
          "location": "Main",
          "address": "1169 Eastern Parkway, Suite 2211, Louisville, KY 40217",
          "phone": "502-635-2775"
        },
        {
          "location": "Main",
          "address": "UofL Health – Mary & Elizabeth Hospital, Medical Plaza 4, 4331 Churchman Ave, Suite 101, Louisville, KY 40215",
          "phone": "502-815-7336"
        }
      ]
    },
    "source_id": "facility_141",
    "source_file": ""
  },
  {
    "card_type": "entity",
    "entity_type": "MedicalProvider",
    "name": "UofL Physicians – Palliative Care",
    "attributes": {
      "parent_system": "",
      "location_count": 3,
      "locations": [
        {
          "location": "Main",
          "address": "UofL Trager Institute/Optimal Aging Clinic Republic Bank Foundation, 204 East Market Street, Suite 3A, Louisville, KY 40202",
          "phone": "502-587-4391"
        },
        {
          "location": "Main",
          "address": "UofL Health – Jackson Street Outpatient Center, 550 South Jackson Street, Louisville, KY 40202",
          "phone": "502-561-8800"
        },
        {
          "location": "Main",
          "address": "UofL Health – Brown Cancer Center – Downtown, 529 South Jackson Street, 3rd Floor, Louisville, KY 40202",
          "phone": "502-562-4370"
        }
      ]
    },
    "source_id": "facility_142",
    "source_file": ""
  },
  {
    "card_type": "entity",
    "entity_type": "MedicalProvider",
    "name": "UofL Physicians – Pathology",
    "attributes": {
      "parent_system": "",
      "location_count": 3,
      "locations": [
        {
          "location": "Main",
          "address": "UofL Health – Medical Center East, 3920 Dutchmans Lane, Louisville, KY 40207",
          "phone": "502-582-7406"
        },
        {
          "location": "Main",
          "address": "UofL Health – Jewish Hospital, 200 Abraham Flexner Way, Louisville, KY 40202",
          "phone": "502-852-8235"
        },
        {
          "location": "Main",
          "address": "UofL Health – UofL Hospital, 530 South Jackson Street, Louisville, KY 40202",
          "phone": "502-852-8235"
        }
      ]
    },
    "source_id": "facility_143",
    "source_file": ""
  },
  {
    "card_type": "entity",
    "entity_type": "MedicalProvider",
    "name": "UofL Physicians – Physical Medicine & Rehabilitation",
    "attributes": {
      "parent_system": "",
      "location_count": 2,
      "locations": [
        {
          "location": "Main",
          "address": "UofL Health – Brain & Spine Institute, UofL Health – Abraham Flexner Outpatient Center, 225 Abraham Flexner Way, Suite 505, Louisville, KY 40202",
          "phone": "502-588-2160"
        },
        {
          "location": "Main",
          "address": "UofL Health – Brain & Spine Institute, UofL Health – Medical Center East, 3920 Dutchmans Lane, Suite 306, Louisville, KY 40207",
          "phone": "502-588-2160"
        }
      ]
    },
    "source_id": "facility_144",
    "source_file": ""
  },
  {
    "card_type": "entity",
    "entity_type": "MedicalProvider",
    "name": "UofL Physicians – Plastic & Reconstructive Surgery",
    "attributes": {
      "parent_system": "",
      "location_count": 3,
      "locations": [
        {
          "location": "Main",
          "address": "UofL Health – Mary & Elizabeth Hospital, Medical Plaza 1, 4402 Churchman Avenue, Suite 300, Louisville, KY 40215",
          "phone": "502-583-8303"
        },
        {
          "location": "Main",
          "address": "UofL Health – Chestnut Street Outpatient Center, 401 East Chestnut Street, Suite 790, Louisville, KY 40202",
          "phone": "502-583-8303"
        },
        {
          "location": "Main",
          "address": "UofL Health – Medical Center Northeast, 2401 Terra Crossing Boulevard, Suite 401, Louisville, KY 40245",
          "phone": "502-583-8303"
        }
      ]
    },
    "source_id": "facility_145",
    "source_file": ""
  },
  {
    "card_type": "entity",
    "entity_type": "MedicalProvider",
    "name": "UofL Physicians – Podiatric Medicine & Surgery",
    "attributes": {
      "parent_system": "",
      "location_count": 3,
      "locations": [
        {
          "location": "Main",
          "address": "UofL Health – Sports Medicine Institute, Cardinal Station, 215 Central Avenue, Suite 100, Louisville, KY 40208",
          "phone": "502-897-1616"
        },
        {
          "location": "Main",
          "address": "4119 Browns Lane, Building 2, Louisville, KY 40220",
          "phone": "502-897-1616"
        },
        {
          "location": "Main",
          "address": "2857 Charlestown Road, Suite 300, New Albany, IN 47150",
          "phone": "502-897-1616"
        }
      ]
    },
    "source_id": "facility_146",
    "source_file": ""
  },
  {
    "card_type": "entity",
    "entity_type": "MedicalProvider",
    "name": "UofL Physicians – Primary Care",
    "attributes": {
      "parent_system": "",
      "location_count": 26,
      "locations": [
        {
          "location": "Main",
          "address": "UofL Health – Mary & Elizabeth Hospital, Medical Plaza 3, 4500 Churchman Avenue, Suite 101, Louisville, KY 40215",
          "phone": "502-361-1389"
        },
        {
          "location": "Main",
          "address": "UofL Health – Medical Center Northeast, 2401 Terra Crossing Boulevard, Suite 410, Louisville, KY 40245",
          "phone": "502-588-4500"
        },
        {
          "location": "Main",
          "address": "847 Taylorsville Road, Taylorsville, KY 40071",
          "phone": "502-588-8705"
        },
        {
          "location": "Main",
          "address": "10300 Dixie Highway, Louisville, KY 40272",
          "phone": "502-995-7775"
        },
        {
          "location": "Main",
          "address": "150 Fairview Court, Eminence, KY 40019",
          "phone": "502-845-5672"
        },
        {
          "location": "Main",
          "address": "1707 Cedar Grove Road, Suite 10, Shepherdsville, KY 40165",
          "phone": "502-543-3246"
        },
        {
          "location": "Main",
          "address": "UofL Health – Medical Center Northeast, 2401 Terra Crossing Boulevard, Suite 411, Louisville, KY 40245",
          "phone": "502-244-0911"
        },
        {
          "location": "Main",
          "address": "187 Adam Shepherd Parkway, Suite 5, Shepherdsville, KY 40165",
          "phone": "502-543-4119"
        },
        {
          "location": "Main",
          "address": "UofL Health – Rudd Center, 201 Abraham Flexner Way, Suite 904, Louisville, KY 40202",
          "phone": "502-589-3844"
        },
        {
          "location": "Main",
          "address": "UofL Health – Abraham Flexner Outpatient Center, 225 Abraham Flexner Way, Suite 304, Louisville, KY 40202",
          "phone": "502-585-1200"
        },
        {
          "location": "Main",
          "address": "UofL Health – Medical Center Northeast, 2401 Terra Crossing Boulevard, Suite 402, Louisville, KY 40245",
          "phone": "502-210-4530"
        },
        {
          "location": "Main",
          "address": "UofL Health – Medical Center East, 3920 Dutchmans Lane, Suite 305, Louisville, KY 40207",
          "phone": "502-899-4177"
        },
        {
          "location": "Main",
          "address": "4423 Bardstown Road, Louisville, KY 40218",
          "phone": "502-495-2400"
        },
        {
          "location": "Main",
          "address": "5100 Outer Loop, Louisville, KY 40219",
          "phone": "502-968-6226"
        },
        {
          "location": "Main",
          "address": "UofL Physicians – Primary Care – Sun Valley, UofL Health – Medical Center Southend, 5129 Dixie Highway, Suite 100, Louisville, KY 40216",
          "phone": "502-933-6400"
        },
        {
          "location": "Main",
          "address": "60 Mack Walters Road, Shelbyville, KY 40065, Primary Care: 502-633-4622 | Occupational Medicine: 502-992-7611",
          "phone": ""
        },
        {
          "location": "Main",
          "address": "6801 Dixie Highway, Suite 133, Louisville, KY 40258",
          "phone": "502-937-3864"
        },
        {
          "location": "Main",
          "address": "8111 Bardstown Road, Louisville, KY 40291",
          "phone": "502-231-7680"
        },
        {
          "location": "Main",
          "address": "8113 Bardstown Road, Louisville, KY 40291",
          "phone": "502-239-9920"
        },
        {
          "location": "Main",
          "address": "900 Fairdale Road, Fairdale, KY 40118",
          "phone": "502-366-8778"
        },
        {
          "location": "Main",
          "address": "9520 Ormsby Station Road, Suite 175, Louisville, KY 40223",
          "phone": "502-426-0606"
        },
        {
          "location": "Main",
          "address": "9569 Taylorsville Road, Suite 109, Louisville, KY 40299",
          "phone": "502-261-0655"
        },
        {
          "location": "Main",
          "address": "UofL Health – Mary & Elizabeth Hospital, Medical Plaza 2, 1900 Bluegrass Avenue, Suite 300, Louisville, KY 40215",
          "phone": "502-361-1222"
        },
        {
          "location": "Main",
          "address": "UofL Health – Medical Center East, 3920 Dutchmans Lane, Suite 315, Louisville, KY 40207",
          "phone": "502-896-4246"
        },
        {
          "location": "Main",
          "address": "UofL Health – Chestnut Street Outpatient Center, 401 East Chestnut Street, Suite 370, Louisville, KY 40202",
          "phone": "502-588-4500"
        },
        {
          "location": "Main",
          "address": "9409 Shelbyville Road, Suite 104, Louisville, KY 40222",
          "phone": "502-588-4992"
        }
      ]
    },
    "source_id": "facility_147",
    "source_file": ""
  },
  {
    "card_type": "entity",
    "entity_type": "MedicalProvider",
    "name": "UofL Physicians – Primary Care – Concierge Medicine",
    "attributes": {
      "parent_system": "",
      "location_count": 2,
      "locations": [
        {
          "location": "Main",
          "address": "UofL Health – Medical Center Northeast, 2401 Terra Crossing Boulevard, Suite 405, Louisville, KY 40245",
          "phone": "502-210-4430"
        },
        {
          "location": "Main",
          "address": "Springs Medical Center, 6420 New Dutchmans Pkwy, Suite 395, Louisville, KY 40205",
          "phone": "502-897-0272"
        }
      ]
    },
    "source_id": "facility_148",
    "source_file": ""
  },
  {
    "card_type": "entity",
    "entity_type": "MedicalProvider",
    "name": "UofL Physicians – Primary Care – Parkland",
    "attributes": {
      "parent_system": "",
      "location_count": 1,
      "locations": [
        {
          "location": "Main",
          "address": "2746 Virginia Avenue, Louisville, KY 40211",
          "phone": "502-815-7042"
        }
      ]
    },
    "source_id": "facility_149",
    "source_file": ""
  },
  {
    "card_type": "entity",
    "entity_type": "MedicalProvider",
    "name": "UofL Physicians – Primary Care Associates",
    "attributes": {
      "parent_system": "",
      "location_count": 9,
      "locations": [
        {
          "location": "Main",
          "address": "UofL Health – Shelbyville Hospital, 515 Hospital Drive, Suite 1, Shelbyville, KY 40065",
          "phone": "502-633-3525"
        },
        {
          "location": "Main",
          "address": "UofL Health – South Hospital, Medical Plaza 2, 1868 West Hebron Lane, Suite 301, Shepherdsville, KY 40165",
          "phone": "502-957-2084"
        },
        {
          "location": "Main",
          "address": "4010 Dupont Circle, Suite 308, Louisville, KY 40207",
          "phone": "502-896-8041"
        },
        {
          "location": "Main",
          "address": "532 North Bardstown Road, Mt. Washington, KY 40047",
          "phone": "502-955-5800"
        },
        {
          "location": "Main",
          "address": "815 Hillcrest Drive, Brandenburg, KY 40108",
          "phone": "270-422-4111"
        },
        {
          "location": "Main",
          "address": "1505 South 7th Street, Louisville, KY 40208",
          "phone": "502-637-1005"
        },
        {
          "location": "Main",
          "address": "131 Depot Ave., Lebanon Junction, KY 40150",
          "phone": "502-957-2084"
        },
        {
          "location": "Main",
          "address": "10100 Dixie Highway, Louisville, KY 40272",
          "phone": "502-937-4766"
        },
        {
          "location": "Main",
          "address": "UofL Health – Medical Center Northeast, 2401 Terra Crossing Boulevard, Suite 410, Louisville, KY 40245",
          "phone": "502-588-4618"
        }
      ]
    },
    "source_id": "facility_150",
    "source_file": ""
  },
  {
    "card_type": "entity",
    "entity_type": "MedicalProvider",
    "name": "UofL Physicians – Psychiatry",
    "attributes": {
      "parent_system": "",
      "location_count": 1,
      "locations": [
        {
          "location": "Main",
          "address": "UofL Health – Shelbyville Hospital, 515 Hospital Drive, Shelbyville, KY 40065",
          "phone": "502-815-9801"
        }
      ]
    },
    "source_id": "facility_151",
    "source_file": ""
  },
  {
    "card_type": "entity",
    "entity_type": "MedicalProvider",
    "name": "UofL Physicians – Psychiatry and Depression Center",
    "attributes": {
      "parent_system": "",
      "location_count": 1,
      "locations": [
        {
          "location": "Main",
          "address": "UofL Health – Chestnut Street Outpatient Center, 401 East Chestnut Street, Suite 610, Louisville, KY 40202",
          "phone": "502-588-4450"
        }
      ]
    },
    "source_id": "facility_152",
    "source_file": ""
  },
  {
    "card_type": "entity",
    "entity_type": "MedicalProvider",
    "name": "UofL Physicians – Pulmonary Associates",
    "attributes": {
      "parent_system": "",
      "location_count": 1,
      "locations": [
        {
          "location": "Main",
          "address": "UofL Health – Shelbyville Hospital, 731 Hospital Drive, Suite 1, Shelbyville, KY 40065",
          "phone": "502-647-4154"
        }
      ]
    },
    "source_id": "facility_153",
    "source_file": ""
  },
  {
    "card_type": "entity",
    "entity_type": "MedicalProvider",
    "name": "UofL Physicians – Pulmonology",
    "attributes": {
      "parent_system": "",
      "location_count": 2,
      "locations": [
        {
          "location": "Main",
          "address": "UofL Health – Brown Cancer Center – Downtown, 529 South Jackson Street, 3rd Floor, Louisville, KY 40202",
          "phone": "502-588-4710"
        },
        {
          "location": "Main",
          "address": "UofL Health – Chestnut Street Outpatient Center, 401 East Chestnut Street, Suite 310, Louisville, KY 40202",
          "phone": "502-588-4710"
        }
      ]
    },
    "source_id": "facility_154",
    "source_file": ""
  },
  {
    "card_type": "entity",
    "entity_type": "MedicalProvider",
    "name": "UofL Physicians – Sleep Center",
    "attributes": {
      "parent_system": "",
      "location_count": 1,
      "locations": [
        {
          "location": "Main",
          "address": "300 East Market Street, Suite 490, Louisville, KY 40202",
          "phone": "502-588-0480"
        }
      ]
    },
    "source_id": "facility_155",
    "source_file": ""
  },
  {
    "card_type": "entity",
    "entity_type": "MedicalProvider",
    "name": "UofL Physicians – Sleep Medicine",
    "attributes": {
      "parent_system": "",
      "location_count": 1,
      "locations": [
        {
          "location": "Main",
          "address": "Medical Office Building, 720 Hospital Drive, Suite 201, Shelbyville, KY 40065",
          "phone": "502-588-0480"
        }
      ]
    },
    "source_id": "facility_156",
    "source_file": ""
  },
  {
    "card_type": "entity",
    "entity_type": "MedicalProvider",
    "name": "UofL Physicians – Sleep Medicine Associates",
    "attributes": {
      "parent_system": "",
      "location_count": 1,
      "locations": [
        {
          "location": "Main",
          "address": "UofL Health – South Hospital, Medical Plaza 1, 1905 W. Hebron Lane, 2nd Floor, Suite 207, Shepherdsville, KY 40165",
          "phone": "502-259-6610"
        }
      ]
    },
    "source_id": "facility_157",
    "source_file": ""
  },
  {
    "card_type": "entity",
    "entity_type": "MedicalProvider",
    "name": "UofL Physicians – Speech-Language Pathology",
    "attributes": {
      "parent_system": "",
      "location_count": 1,
      "locations": [
        {
          "location": "Main",
          "address": "UofL Health – Chestnut Street Outpatient Center, 401 East Chestnut Street, Suite 170, Louisville, KY 40202",
          "phone": "502-583-3687"
        }
      ]
    },
    "source_id": "facility_158",
    "source_file": ""
  },
  {
    "card_type": "entity",
    "entity_type": "MedicalProvider",
    "name": "UofL Physicians – Sports Medicine",
    "attributes": {
      "parent_system": "",
      "location_count": 3,
      "locations": [
        {
          "location": "Main",
          "address": "UofL Health – Sports Medicine Institute, Cardinal Station, 215 Central Avenue, Suite 201, Louisville, KY 40208",
          "phone": "502-637-7678"
        },
        {
          "location": "Main",
          "address": "UofL Health – Rudd Center, 201 Abraham Flexner Way, Suite 100, Louisville, KY 40202",
          "phone": "502-587-8222"
        },
        {
          "location": "Main",
          "address": "UofL Health – Brain & Spine Institute, UofL Health – Sports Medicine Institute, Cardinal Station, 215 Central Avenue, Suite 201, Louisville, KY 40208",
          "phone": "502-637-7678"
        }
      ]
    },
    "source_id": "facility_159",
    "source_file": ""
  },
  {
    "card_type": "entity",
    "entity_type": "MedicalProvider",
    "name": "UofL Physicians – Surgical Oncology",
    "attributes": {
      "parent_system": "",
      "location_count": 4,
      "locations": [
        {
          "location": "Main",
          "address": "UofL Health – Chestnut Street Outpatient Center, 401 East Chestnut Street, Suite 710, Louisville, KY 40202",
          "phone": "502-583-8303"
        },
        {
          "location": "Main",
          "address": "UofL Health – Brown Cancer Center – Northeast, UofL Health – Medical Center Northeast, 2401 Terra Crossing Boulevard, Suite 401, Louisville, KY 40245",
          "phone": "502-583-8303"
        },
        {
          "location": "Main",
          "address": "UofL Health – Mary & Elizabeth Hospital, Medical Plaza 2, 1900 Bluegrass Avenue, Suite 204, Louisville, KY 40215",
          "phone": "502-583-8303"
        },
        {
          "location": "Main",
          "address": "Children's Hospital Foundation Building, 601 South Floyd Street, Louisville, KY 40202",
          "phone": "502-583-8303"
        }
      ]
    },
    "source_id": "facility_160",
    "source_file": ""
  },
  {
    "card_type": "entity",
    "entity_type": "MedicalProvider",
    "name": "UofL Physicians – Urogynecology",
    "attributes": {
      "parent_system": "",
      "location_count": 1,
      "locations": [
        {
          "location": "Main",
          "address": "Springs Medical Center, 6420 New Dutchmans Pkwy, Suite 190, Louisville, KY 40205",
          "phone": "502-588-7660"
        }
      ]
    },
    "source_id": "facility_161",
    "source_file": ""
  },
  {
    "card_type": "entity",
    "entity_type": "MedicalProvider",
    "name": "UofL Physicians – Urogynecology Associates",
    "attributes": {
      "parent_system": "",
      "location_count": 1,
      "locations": [
        {
          "location": "Main",
          "address": "UofL Health – Center for Women’s Health, UofL Health – Mary & Elizabeth Hospital, Medical Plaza 3, 4500 Churchman Avenue, Suite 202, Louisville, KY 40215",
          "phone": "502-977-5907"
        }
      ]
    },
    "source_id": "facility_162",
    "source_file": ""
  },
  {
    "card_type": "entity",
    "entity_type": "MedicalProvider",
    "name": "UofL Physicians – Urology",
    "attributes": {
      "parent_system": "",
      "location_count": 4,
      "locations": [
        {
          "location": "Main",
          "address": "UofL Health – Chestnut Street Outpatient Center, 401 East Chestnut Street, Suite 520, Louisville, KY 40202",
          "phone": "502-588-4740"
        },
        {
          "location": "Main",
          "address": "UofL Health – Medical Center East, 3920 Dutchmans Lane, Suite 309, Louisville, KY 40207",
          "phone": "502-588-4740"
        },
        {
          "location": "Main",
          "address": "UofL Health – Medical Center Northeast, 2401 Terra Crossing Boulevard, Suite 402, Louisville, KY 40245",
          "phone": "502-405-9450"
        },
        {
          "location": "Main",
          "address": "UofL Health – South Hospital, Medical Plaza 2, 1868 W Hebron Lane, Suite 302, Shepherdsville, KY 40165",
          "phone": "502-588-4740"
        }
      ]
    },
    "source_id": "facility_163",
    "source_file": ""
  },
  {
    "card_type": "entity",
    "entity_type": "MedicalProvider",
    "name": "UofL Physicians – Urology Associates",
    "attributes": {
      "parent_system": "",
      "location_count": 1,
      "locations": [
        {
          "location": "Main",
          "address": "UofL Health – Shelbyville Hospital, 731 Hospital Drive, Suite 2, Shelbyville, KY 40065",
          "phone": "502-405-9450"
        }
      ]
    },
    "source_id": "facility_164",
    "source_file": ""
  },
  {
    "card_type": "entity",
    "entity_type": "MedicalProvider",
    "name": "UofL Physicians – Vaccine & International Travel Center",
    "attributes": {
      "parent_system": "",
      "location_count": 1,
      "locations": [
        {
          "location": "Main",
          "address": "501 East Broadway, Suite 110, Louisville, KY 40202",
          "phone": "502-852-6464"
        }
      ]
    },
    "source_id": "facility_165",
    "source_file": ""
  },
  {
    "card_type": "entity",
    "entity_type": "MedicalProvider",
    "name": "UofL Physicians – Vascular Surgery",
    "attributes": {
      "parent_system": "",
      "location_count": 7,
      "locations": [
        {
          "location": "Main",
          "address": "UofL Health – Heart Hospital, A Part of Jewish Hospital, UofL Health – Rudd Center, 201 Abraham Flexner Way, Suite 1004, Louisville, KY 40202",
          "phone": "502-589-3173"
        },
        {
          "location": "Main",
          "address": "UofL Health – Chestnut Street Outpatient Center, 401 East Chestnut Street, Suite 710, Louisville, KY 40202",
          "phone": "502-583-8303"
        },
        {
          "location": "Main",
          "address": "UofL Health – Mary & Elizabeth Hospital, Medical Plaza 2, 1900 Bluegrass Avenue, Suite 204, Louisville, KY 40215",
          "phone": "502-361-6483"
        },
        {
          "location": "Main",
          "address": "UofL Health – Shelbyville Hospital, 731 Hospital Drive, Suite 2, Shelbyville, KY 40065",
          "phone": "502-589-3173"
        },
        {
          "location": "Main",
          "address": "UofL Health – Medical Center East, 3920 Dutchmans Lane, Suite 301, Louisville, KY 40207",
          "phone": "502-589-3173"
        },
        {
          "location": "Main",
          "address": "201 South 5th Street, Suite 10, Bardstown, KY 40004",
          "phone": "502-589-3173"
        },
        {
          "location": "Main",
          "address": "UofL Health – South Hospital, Medical Plaza 1, 1905 W. Hebron Lane, Suite 203, Shepherdsville, KY 40165",
          "phone": "502-589-3173"
        }
      ]
    },
    "source_id": "facility_166",
    "source_file": ""
  },
  {
    "card_type": "entity",
    "entity_type": "MedicalProvider",
    "name": "UofL Physicians – Women’s Sexual Health Clinic",
    "attributes": {
      "parent_system": "",
      "location_count": 1,
      "locations": [
        {
          "location": "Main",
          "address": "UofL Health – Brown Cancer Center – Downtown, 529 South Jackson Street, Third Floor, Louisville, KY 40202",
          "phone": "502-308-1290"
        }
      ]
    },
    "source_id": "facility_167",
    "source_file": ""
  },
  {
    "card_type": "entity",
    "entity_type": "MedicalProvider",
    "name": "UofL Trager Institute/Optimal Aging Clinic Republic Bank Foundation",
    "attributes": {
      "parent_system": "",
      "location_count": 1,
      "locations": [
        {
          "location": "Main",
          "address": "204 East Market Street, Suite A, Louisville, KY 40202",
          "phone": "502-588-4340"
        }
      ]
    },
    "source_id": "facility_168",
    "source_file": ""
  }
]